{"type":"FeatureCollection","metadata":{"generatedAt":"2026-04-25T20:38:33.934Z","source":"OpenStreetMap via Overpass API","bbox":{"west":-0.26509,"south":51.404991,"east":0.105825,"north":51.583786},"serviceBoroughCodes":["E09000001","E09000007","E09000012","E09000013","E09000019","E09000020","E09000022","E09000025","E09000028","E09000030","E09000032","E09000033"],"fetchBasis":"OSM query uses the union bounding box of boroughs containing Santander Cycles docking stations; features are then clipped by representative point to those borough polygons.","stationCount":797,"rawElementCount":134591,"preFilterPoiCount":105877,"preFilterLanduseCount":70133,"boroughPoiCount":74712,"boroughLanduseCount":43213,"poiCount":7650,"landuseCount":1200,"note":"Context features are lightly classified for Free Explore route interpretation. Water features are intentionally excluded."},"features":[{"type":"Feature","properties":{"id":"node/10078324933","name":"Beckton Post Office","category":"civic","osmType":"node","osmId":10078324933,"amenity":"post_office","tourism":null,"shop":null,"office":null,"railway":null,"leisure":null,"source":"OpenStreetMap via Overpass API"},"geometry":{"type":"Point","coordinates":[0.057551,51.51455]}},{"type":"Feature","properties":{"id":"node/10137676412","name":"High Street Post Office","category":"civic","osmType":"node","osmId":10137676412,"amenity":"post_office","tourism":null,"shop":null,"office":null,"railway":null,"leisure":null,"source":"OpenStreetMap via Overpass API"},"geometry":{"type":"Point","coordinates":[-0.040584,51.548585]}},{"type":"Feature","properties":{"id":"node/10159180667","name":"Jeyes Community Centre","category":"civic","osmType":"node","osmId":10159180667,"amenity":"community_centre","tourism":null,"shop":null,"office":null,"railway":null,"leisure":null,"source":"OpenStreetMap via Overpass API"},"geometry":{"type":"Point","coordinates":[0.022383,51.530736]}},{"type":"Feature","properties":{"id":"node/10239834298","name":"Abbey Community Centre","category":"civic","osmType":"node","osmId":10239834298,"amenity":"community_centre","tourism":null,"shop":null,"office":null,"railway":null,"leisure":null,"source":"OpenStreetMap via Overpass API"},"geometry":{"type":"Point","coordinates":[-0.186152,51.540377]}},{"type":"Feature","properties":{"id":"node/10307622746","name":"Romford Road Post Office","category":"civic","osmType":"node","osmId":10307622746,"amenity":"post_office","tourism":null,"shop":null,"office":null,"railway":null,"leisure":null,"source":"OpenStreetMap via Overpass API"},"geometry":{"type":"Point","coordinates":[0.035175,51.54734]}},{"type":"Feature","properties":{"id":"node/1031024404","name":"Hackney Post Office","category":"civic","osmType":"node","osmId":1031024404,"amenity":"post_office","tourism":null,"shop":null,"office":null,"railway":null,"leisure":null,"source":"OpenStreetMap via Overpass API"},"geometry":{"type":"Point","coordinates":[-0.054911,51.549056]}},{"type":"Feature","properties":{"id":"node/10310607503","name":"Hasanah Centre","category":"civic","osmType":"node","osmId":10310607503,"amenity":"community_centre","tourism":null,"shop":null,"office":null,"railway":null,"leisure":null,"source":"OpenStreetMap via Overpass API"},"geometry":{"type":"Point","coordinates":[0.003082,51.54119]}},{"type":"Feature","properties":{"id":"node/10765566671","name":"Watch Home LTD","category":"civic","osmType":"node","osmId":10765566671,"amenity":"post_office","tourism":null,"shop":null,"office":null,"railway":null,"leisure":null,"source":"OpenStreetMap via Overpass API"},"geometry":{"type":"Point","coordinates":[-0.050441,51.514211]}},{"type":"Feature","properties":{"id":"node/10782708029","name":"civic","category":"civic","osmType":"node","osmId":10782708029,"amenity":"community_centre","tourism":null,"shop":null,"office":null,"railway":null,"leisure":null,"source":"OpenStreetMap via Overpass API"},"geometry":{"type":"Point","coordinates":[0.060561,51.555213]}},{"type":"Feature","properties":{"id":"node/10789040892","name":"ST. ANNE'S COMMUNITY CENTRE CHILDCARE LTD","category":"civic","osmType":"node","osmId":10789040892,"amenity":"community_centre","tourism":null,"shop":null,"office":null,"railway":null,"leisure":null,"source":"OpenStreetMap via Overpass API"},"geometry":{"type":"Point","coordinates":[-0.120565,51.485474]}},{"type":"Feature","properties":{"id":"node/108035518","name":"South Lambeth M.S.P.O","category":"civic","osmType":"node","osmId":108035518,"amenity":"post_office","tourism":null,"shop":null,"office":null,"railway":null,"leisure":null,"source":"OpenStreetMap via Overpass API"},"geometry":{"type":"Point","coordinates":[-0.131376,51.475243]}},{"type":"Feature","properties":{"id":"node/10811264147","name":"Providence Row Housing Association","category":"civic","osmType":"node","osmId":10811264147,"amenity":"community_centre","tourism":null,"shop":null,"office":null,"railway":null,"leisure":null,"source":"OpenStreetMap via Overpass API"},"geometry":{"type":"Point","coordinates":[-0.078954,51.4953]}},{"type":"Feature","properties":{"id":"node/1081725631","name":"Kensal Youth Club","category":"civic","osmType":"node","osmId":1081725631,"amenity":"community_centre","tourism":null,"shop":null,"office":null,"railway":null,"leisure":null,"source":"OpenStreetMap via Overpass API"},"geometry":{"type":"Point","coordinates":[-0.214872,51.52542]}},{"type":"Feature","properties":{"id":"node/10839368101","name":"Alford house youth club","category":"civic","osmType":"node","osmId":10839368101,"amenity":"community_centre","tourism":null,"shop":null,"office":null,"railway":null,"leisure":null,"source":"OpenStreetMap via Overpass API"},"geometry":{"type":"Point","coordinates":[-0.114011,51.487866]}},{"type":"Feature","properties":{"id":"node/11047086955","name":"Haggerston Community Centre","category":"civic","osmType":"node","osmId":11047086955,"amenity":"community_centre","tourism":null,"shop":null,"office":null,"railway":null,"leisure":null,"source":"OpenStreetMap via Overpass API"},"geometry":{"type":"Point","coordinates":[-0.072441,51.537771]}},{"type":"Feature","properties":{"id":"node/11063343484","name":"The Heritage & Arts Centre Bow","category":"civic","osmType":"node","osmId":11063343484,"amenity":"community_centre","tourism":null,"shop":null,"office":null,"railway":null,"leisure":null,"source":"OpenStreetMap via Overpass API"},"geometry":{"type":"Point","coordinates":[-0.034187,51.52742]}},{"type":"Feature","properties":{"id":"node/11128539029","name":"Church Manor Wellbeing Hub","category":"civic","osmType":"node","osmId":11128539029,"amenity":"community_centre","tourism":null,"shop":null,"office":null,"railway":null,"leisure":null,"source":"OpenStreetMap via Overpass API"},"geometry":{"type":"Point","coordinates":[-0.109432,51.477393]}},{"type":"Feature","properties":{"id":"node/11135694688","name":"Alf Partridge MBE Community Hall","category":"civic","osmType":"node","osmId":11135694688,"amenity":"community_centre","tourism":null,"shop":null,"office":null,"railway":null,"leisure":null,"source":"OpenStreetMap via Overpass API"},"geometry":{"type":"Point","coordinates":[-0.055148,51.559699]}},{"type":"Feature","properties":{"id":"node/11147330705","name":"Portsoken Community Centre","category":"civic","osmType":"node","osmId":11147330705,"amenity":"community_centre","tourism":null,"shop":null,"office":null,"railway":null,"leisure":null,"source":"OpenStreetMap via Overpass API"},"geometry":{"type":"Point","coordinates":[-0.07443,51.513396]}},{"type":"Feature","properties":{"id":"node/11156118928","name":"Making Space","category":"civic","osmType":"node","osmId":11156118928,"amenity":"community_centre","tourism":null,"shop":null,"office":null,"railway":null,"leisure":null,"source":"OpenStreetMap via Overpass API"},"geometry":{"type":"Point","coordinates":[-0.00536,51.513545]}},{"type":"Feature","properties":{"id":"node/11158764143","name":"Aberfeldy Community Centre","category":"civic","osmType":"node","osmId":11158764143,"amenity":"community_centre","tourism":null,"shop":null,"office":null,"railway":null,"leisure":null,"source":"OpenStreetMap via Overpass API"},"geometry":{"type":"Point","coordinates":[-0.005281,51.512577]}},{"type":"Feature","properties":{"id":"node/11194705599","name":"Holly Lodge Community Centre","category":"civic","osmType":"node","osmId":11194705599,"amenity":"community_centre","tourism":null,"shop":null,"office":null,"railway":null,"leisure":null,"source":"OpenStreetMap via Overpass API"},"geometry":{"type":"Point","coordinates":[-0.148243,51.56466]}},{"type":"Feature","properties":{"id":"node/11218323101","name":"QMUL Post Room","category":"civic","osmType":"node","osmId":11218323101,"amenity":"post_office","tourism":null,"shop":null,"office":null,"railway":null,"leisure":null,"source":"OpenStreetMap via Overpass API"},"geometry":{"type":"Point","coordinates":[-0.041693,51.523767]}},{"type":"Feature","properties":{"id":"node/11230973825","name":"Victoria Park Community Centre","category":"civic","osmType":"node","osmId":11230973825,"amenity":"community_centre","tourism":null,"shop":null,"office":null,"railway":null,"leisure":null,"source":"OpenStreetMap via Overpass API"},"geometry":{"type":"Point","coordinates":[-0.051536,51.53649]}},{"type":"Feature","properties":{"id":"node/11231293688","name":"Vanston Place Community Center","category":"civic","osmType":"node","osmId":11231293688,"amenity":"community_centre","tourism":null,"shop":null,"office":null,"railway":null,"leisure":null,"source":"OpenStreetMap via Overpass API"},"geometry":{"type":"Point","coordinates":[-0.197166,51.481217]}},{"type":"Feature","properties":{"id":"node/11277822504","name":"Danebury Avenue Post Office","category":"civic","osmType":"node","osmId":11277822504,"amenity":"post_office","tourism":null,"shop":null,"office":null,"railway":null,"leisure":null,"source":"OpenStreetMap via Overpass API"},"geometry":{"type":"Point","coordinates":[-0.242605,51.449567]}},{"type":"Feature","properties":{"id":"node/11292764633","name":"Fulham Post Office","category":"civic","osmType":"node","osmId":11292764633,"amenity":"post_office","tourism":null,"shop":null,"office":null,"railway":null,"leisure":null,"source":"OpenStreetMap via Overpass API"},"geometry":{"type":"Point","coordinates":[-0.206497,51.474524]}},{"type":"Feature","properties":{"id":"node/11292786967","name":"Belsize Park Post Office","category":"civic","osmType":"node","osmId":11292786967,"amenity":"post_office","tourism":null,"shop":null,"office":null,"railway":null,"leisure":null,"source":"OpenStreetMap via Overpass API"},"geometry":{"type":"Point","coordinates":[-0.165798,51.550612]}},{"type":"Feature","properties":{"id":"node/11429024701","name":"Radha Krishna Cultural Centre","category":"civic","osmType":"node","osmId":11429024701,"amenity":"community_centre","tourism":null,"shop":null,"office":null,"railway":null,"leisure":null,"source":"OpenStreetMap via Overpass API"},"geometry":{"type":"Point","coordinates":[0.008188,51.545154]}},{"type":"Feature","properties":{"id":"node/11429425947","name":"Streatham Stables","category":"civic","osmType":"node","osmId":11429425947,"amenity":"community_centre","tourism":null,"shop":null,"office":null,"railway":null,"leisure":null,"source":"OpenStreetMap via Overpass API"},"geometry":{"type":"Point","coordinates":[-0.129785,51.430668]}},{"type":"Feature","properties":{"id":"node/11433397549","name":"Kingsland Hub","category":"civic","osmType":"node","osmId":11433397549,"amenity":"community_centre","tourism":null,"shop":null,"office":null,"railway":null,"leisure":null,"source":"OpenStreetMap via Overpass API"},"geometry":{"type":"Point","coordinates":[-0.076427,51.536731]}},{"type":"Feature","properties":{"id":"node/11500589427","name":"Bethnal Green Post Office","category":"civic","osmType":"node","osmId":11500589427,"amenity":"post_office","tourism":null,"shop":null,"office":null,"railway":null,"leisure":null,"source":"OpenStreetMap via Overpass API"},"geometry":{"type":"Point","coordinates":[-0.067484,51.526237]}},{"type":"Feature","properties":{"id":"node/11502985410","name":"Hackney Road Post Office","category":"civic","osmType":"node","osmId":11502985410,"amenity":"post_office","tourism":null,"shop":null,"office":null,"railway":null,"leisure":null,"source":"OpenStreetMap via Overpass API"},"geometry":{"type":"Point","coordinates":[-0.072701,51.530565]}},{"type":"Feature","properties":{"id":"node/11514620012","name":"Royal Docks Post Office","category":"civic","osmType":"node","osmId":11514620012,"amenity":"post_office","tourism":null,"shop":null,"office":null,"railway":null,"leisure":null,"source":"OpenStreetMap via Overpass API"},"geometry":{"type":"Point","coordinates":[0.029817,51.501262]}},{"type":"Feature","properties":{"id":"node/11517473708","name":"Church Road Post Office","category":"civic","osmType":"node","osmId":11517473708,"amenity":"post_office","tourism":null,"shop":null,"office":null,"railway":null,"leisure":null,"source":"OpenStreetMap via Overpass API"},"geometry":{"type":"Point","coordinates":[0.057436,51.548474]}},{"type":"Feature","properties":{"id":"node/11517674168","name":"High Street North (256) Post Office","category":"civic","osmType":"node","osmId":11517674168,"amenity":"post_office","tourism":null,"shop":null,"office":null,"railway":null,"leisure":null,"source":"OpenStreetMap via Overpass API"},"geometry":{"type":"Point","coordinates":[0.050831,51.541316]}},{"type":"Feature","properties":{"id":"node/1165598938","name":"Time and Talents","category":"civic","osmType":"node","osmId":1165598938,"amenity":"community_centre","tourism":null,"shop":null,"office":null,"railway":null,"leisure":null,"source":"OpenStreetMap via Overpass API"},"geometry":{"type":"Point","coordinates":[-0.053844,51.500482]}},{"type":"Feature","properties":{"id":"node/11751338205","name":"Anatomie Studio","category":"civic","osmType":"node","osmId":11751338205,"amenity":"community_centre","tourism":null,"shop":null,"office":null,"railway":null,"leisure":null,"source":"OpenStreetMap via Overpass API"},"geometry":{"type":"Point","coordinates":[-0.056554,51.4751]}},{"type":"Feature","properties":{"id":"node/11780058752","name":"Collingwood Community Centre","category":"civic","osmType":"node","osmId":11780058752,"amenity":"community_centre","tourism":null,"shop":null,"office":null,"railway":null,"leisure":null,"source":"OpenStreetMap via Overpass API"},"geometry":{"type":"Point","coordinates":[-0.057301,51.522887]}},{"type":"Feature","properties":{"id":"node/11824232941","name":"Jean Stokes Community Centre","category":"civic","osmType":"node","osmId":11824232941,"amenity":"community_centre","tourism":null,"shop":null,"office":null,"railway":null,"leisure":null,"source":"OpenStreetMap via Overpass API"},"geometry":{"type":"Point","coordinates":[-0.117731,51.540349]}},{"type":"Feature","properties":{"id":"node/11831400393","name":"Kurdish and Turkish Community Centre","category":"civic","osmType":"node","osmId":11831400393,"amenity":"community_centre","tourism":null,"shop":null,"office":null,"railway":null,"leisure":null,"source":"OpenStreetMap via Overpass API"},"geometry":{"type":"Point","coordinates":[-0.072223,51.546404]}},{"type":"Feature","properties":{"id":"node/11871881151","name":"Pack Send","category":"civic","osmType":"node","osmId":11871881151,"amenity":"post_office","tourism":null,"shop":null,"office":null,"railway":null,"leisure":null,"source":"OpenStreetMap via Overpass API"},"geometry":{"type":"Point","coordinates":[-0.094126,51.484323]}},{"type":"Feature","properties":{"id":"node/11946455812","name":"Prospex","category":"civic","osmType":"node","osmId":11946455812,"amenity":"community_centre","tourism":null,"shop":null,"office":null,"railway":null,"leisure":null,"source":"OpenStreetMap via Overpass API"},"geometry":{"type":"Point","coordinates":[-0.115269,51.549145]}},{"type":"Feature","properties":{"id":"node/11947402738","name":"Islington Chinese Association","category":"civic","osmType":"node","osmId":11947402738,"amenity":"community_centre","tourism":null,"shop":null,"office":null,"railway":null,"leisure":null,"source":"OpenStreetMap via Overpass API"},"geometry":{"type":"Point","coordinates":[-0.126602,51.565504]}},{"type":"Feature","properties":{"id":"node/11950441236","name":"Woodberry Down Community Organisation","category":"civic","osmType":"node","osmId":11950441236,"amenity":"community_centre","tourism":null,"shop":null,"office":null,"railway":null,"leisure":null,"source":"OpenStreetMap via Overpass API"},"geometry":{"type":"Point","coordinates":[-0.090147,51.572924]}},{"type":"Feature","properties":{"id":"node/11950441242","name":"Manor House Development Trust","category":"civic","osmType":"node","osmId":11950441242,"amenity":"community_centre","tourism":null,"shop":null,"office":null,"railway":null,"leisure":null,"source":"OpenStreetMap via Overpass API"},"geometry":{"type":"Point","coordinates":[-0.08957,51.573142]}},{"type":"Feature","properties":{"id":"node/12028841701","name":"Sunshine International Arts / C.A.F.E.","category":"civic","osmType":"node","osmId":12028841701,"amenity":"community_centre","tourism":null,"shop":null,"office":null,"railway":null,"leisure":null,"source":"OpenStreetMap via Overpass API"},"geometry":{"type":"Point","coordinates":[-0.10226,51.465604]}},{"type":"Feature","properties":{"id":"node/12084544910","name":"Post Office","category":"civic","osmType":"node","osmId":12084544910,"amenity":"post_office","tourism":null,"shop":null,"office":null,"railway":null,"leisure":null,"source":"OpenStreetMap via Overpass API"},"geometry":{"type":"Point","coordinates":[-0.168608,51.534483]}},{"type":"Feature","properties":{"id":"node/12108435958","name":"Bow Coroner's Court","category":"civic","osmType":"node","osmId":12108435958,"amenity":"courthouse","tourism":null,"shop":null,"office":null,"railway":null,"leisure":null,"source":"OpenStreetMap via Overpass API"},"geometry":{"type":"Point","coordinates":[-0.019443,51.52798]}},{"type":"Feature","properties":{"id":"node/12126360513","name":"Family Action","category":"civic","osmType":"node","osmId":12126360513,"amenity":"community_centre","tourism":null,"shop":null,"office":null,"railway":null,"leisure":null,"source":"OpenStreetMap via Overpass API"},"geometry":{"type":"Point","coordinates":[-0.20794,51.526433]}},{"type":"Feature","properties":{"id":"node/12261344254","name":"Alpine Grove","category":"civic","osmType":"node","osmId":12261344254,"amenity":"community_centre","tourism":null,"shop":null,"office":null,"railway":null,"leisure":null,"source":"OpenStreetMap via Overpass API"},"geometry":{"type":"Point","coordinates":[-0.048675,51.539177]}},{"type":"Feature","properties":{"id":"node/12263111511","name":"Alumni Visitor Centre","category":"civic","osmType":"node","osmId":12263111511,"amenity":"community_centre","tourism":null,"shop":null,"office":null,"railway":null,"leisure":null,"source":"OpenStreetMap via Overpass API"},"geometry":{"type":"Point","coordinates":[-0.175031,51.499244]}},{"type":"Feature","properties":{"id":"node/12287656513","name":"ELBWO Centre","category":"civic","osmType":"node","osmId":12287656513,"amenity":"community_centre","tourism":null,"shop":null,"office":null,"railway":null,"leisure":null,"source":"OpenStreetMap via Overpass API"},"geometry":{"type":"Point","coordinates":[0.023634,51.552531]}},{"type":"Feature","properties":{"id":"node/12362991070","name":"Somers Town Community Centre","category":"civic","osmType":"node","osmId":12362991070,"amenity":"community_centre","tourism":null,"shop":null,"office":null,"railway":null,"leisure":null,"source":"OpenStreetMap via Overpass API"},"geometry":{"type":"Point","coordinates":[-0.13075,51.53198]}},{"type":"Feature","properties":{"id":"node/12395810979","name":"Chobham Manor Community Centre","category":"civic","osmType":"node","osmId":12395810979,"amenity":"community_centre","tourism":null,"shop":null,"office":null,"railway":null,"leisure":null,"source":"OpenStreetMap via Overpass API"},"geometry":{"type":"Point","coordinates":[-0.009303,51.54972]}},{"type":"Feature","properties":{"id":"node/12488154667","name":"Walworth Town Hall Community Space","category":"civic","osmType":"node","osmId":12488154667,"amenity":"community_centre","tourism":null,"shop":null,"office":null,"railway":null,"leisure":null,"source":"OpenStreetMap via Overpass API"},"geometry":{"type":"Point","coordinates":[-0.097035,51.491007]}},{"type":"Feature","properties":{"id":"node/12512421268","name":"Bow West Organisation","category":"civic","osmType":"node","osmId":12512421268,"amenity":"community_centre","tourism":null,"shop":null,"office":null,"railway":null,"leisure":null,"source":"OpenStreetMap via Overpass API"},"geometry":{"type":"Point","coordinates":[-0.037594,51.528963]}},{"type":"Feature","properties":{"id":"node/12569169520","name":"Toynbee Hall Community Centre and Advice Centre","category":"civic","osmType":"node","osmId":12569169520,"amenity":"community_centre","tourism":null,"shop":null,"office":null,"railway":null,"leisure":null,"source":"OpenStreetMap via Overpass API"},"geometry":{"type":"Point","coordinates":[-0.072591,51.516412]}},{"type":"Feature","properties":{"id":"node/12630124707","name":"civic","category":"civic","osmType":"node","osmId":12630124707,"amenity":"post_office","tourism":null,"shop":null,"office":null,"railway":null,"leisure":null,"source":"OpenStreetMap via Overpass API"},"geometry":{"type":"Point","coordinates":[-0.09406,51.484526]}},{"type":"Feature","properties":{"id":"node/12707627786","name":"Auto Vivendi Supercar Club","category":"civic","osmType":"node","osmId":12707627786,"amenity":"community_centre","tourism":null,"shop":null,"office":null,"railway":null,"leisure":null,"source":"OpenStreetMap via Overpass API"},"geometry":{"type":"Point","coordinates":[-0.186109,51.535699]}},{"type":"Feature","properties":{"id":"node/12718169329","name":"Corner Corner","category":"civic","osmType":"node","osmId":12718169329,"amenity":"community_centre","tourism":null,"shop":null,"office":null,"railway":null,"leisure":null,"source":"OpenStreetMap via Overpass API"},"geometry":{"type":"Point","coordinates":[-0.047703,51.4963]}},{"type":"Feature","properties":{"id":"node/12763328497","name":"LOVO Women's Centre","category":"civic","osmType":"node","osmId":12763328497,"amenity":"community_centre","tourism":null,"shop":null,"office":null,"railway":null,"leisure":null,"source":"OpenStreetMap via Overpass API"},"geometry":{"type":"Point","coordinates":[-0.059794,51.498578]}},{"type":"Feature","properties":{"id":"node/12889122441","name":"civic","category":"civic","osmType":"node","osmId":12889122441,"amenity":"community_centre","tourism":null,"shop":null,"office":null,"railway":null,"leisure":null,"source":"OpenStreetMap via Overpass API"},"geometry":{"type":"Point","coordinates":[-0.1297,51.531052]}},{"type":"Feature","properties":{"id":"node/13003780101","name":"BOST Living Space","category":"civic","osmType":"node","osmId":13003780101,"amenity":"community_centre","tourism":null,"shop":null,"office":null,"railway":null,"leisure":null,"source":"OpenStreetMap via Overpass API"},"geometry":{"type":"Point","coordinates":[-0.108824,51.500929]}},{"type":"Feature","properties":{"id":"node/13004733039","name":"Williamson Street Community Centre","category":"civic","osmType":"node","osmId":13004733039,"amenity":"community_centre","tourism":null,"shop":null,"office":null,"railway":null,"leisure":null,"source":"OpenStreetMap via Overpass API"},"geometry":{"type":"Point","coordinates":[-0.12061,51.55671]}},{"type":"Feature","properties":{"id":"node/13056036123","name":"XYZ","category":"civic","osmType":"node","osmId":13056036123,"amenity":"community_centre","tourism":null,"shop":null,"office":null,"railway":null,"leisure":null,"source":"OpenStreetMap via Overpass API"},"geometry":{"type":"Point","coordinates":[-0.111726,51.518641]}},{"type":"Feature","properties":{"id":"node/13056082669","name":"City of London Police","category":"civic","osmType":"node","osmId":13056082669,"amenity":"police","tourism":null,"shop":null,"office":null,"railway":null,"leisure":null,"source":"OpenStreetMap via Overpass API"},"geometry":{"type":"Point","coordinates":[-0.091388,51.51547]}},{"type":"Feature","properties":{"id":"node/1314590323","name":"Leigham Vale Post Office","category":"civic","osmType":"node","osmId":1314590323,"amenity":"post_office","tourism":null,"shop":null,"office":null,"railway":null,"leisure":null,"source":"OpenStreetMap via Overpass API"},"geometry":{"type":"Point","coordinates":[-0.11793,51.434328]}},{"type":"Feature","properties":{"id":"node/13175053464","name":"North End Road Post Office","category":"civic","osmType":"node","osmId":13175053464,"amenity":"post_office","tourism":null,"shop":null,"office":null,"railway":null,"leisure":null,"source":"OpenStreetMap via Overpass API"},"geometry":{"type":"Point","coordinates":[-0.201313,51.484174]}},{"type":"Feature","properties":{"id":"node/1321939411","name":"XLP","category":"civic","osmType":"node","osmId":1321939411,"amenity":"community_centre","tourism":null,"shop":null,"office":null,"railway":null,"leisure":null,"source":"OpenStreetMap via Overpass API"},"geometry":{"type":"Point","coordinates":[-0.000086,51.54119]}},{"type":"Feature","properties":{"id":"node/1322111783","name":"Stratford Post Office","category":"civic","osmType":"node","osmId":1322111783,"amenity":"post_office","tourism":null,"shop":null,"office":null,"railway":null,"leisure":null,"source":"OpenStreetMap via Overpass API"},"geometry":{"type":"Point","coordinates":[0.000583,51.540522]}},{"type":"Feature","properties":{"id":"node/13227941511","name":"Palestine House","category":"civic","osmType":"node","osmId":13227941511,"amenity":"community_centre","tourism":null,"shop":null,"office":null,"railway":null,"leisure":null,"source":"OpenStreetMap via Overpass API"},"geometry":{"type":"Point","coordinates":[-0.119785,51.517781]}},{"type":"Feature","properties":{"id":"node/13315512699","name":"The Walter Newby Centre","category":"civic","osmType":"node","osmId":13315512699,"amenity":"community_centre","tourism":null,"shop":null,"office":null,"railway":null,"leisure":null,"source":"OpenStreetMap via Overpass API"},"geometry":{"type":"Point","coordinates":[-0.050658,51.532384]}},{"type":"Feature","properties":{"id":"node/13374776801","name":"House of Annetta","category":"civic","osmType":"node","osmId":13374776801,"amenity":"community_centre","tourism":null,"shop":null,"office":null,"railway":null,"leisure":null,"source":"OpenStreetMap via Overpass API"},"geometry":{"type":"Point","coordinates":[-0.072165,51.519846]}},{"type":"Feature","properties":{"id":"node/13381292735","name":"Husk Community Centre","category":"civic","osmType":"node","osmId":13381292735,"amenity":"community_centre","tourism":null,"shop":null,"office":null,"railway":null,"leisure":null,"source":"OpenStreetMap via Overpass API"},"geometry":{"type":"Point","coordinates":[-0.038355,51.512844]}},{"type":"Feature","properties":{"id":"node/13426831001","name":"Umm Al-Qura Centre","category":"civic","osmType":"node","osmId":13426831001,"amenity":"community_centre","tourism":null,"shop":null,"office":null,"railway":null,"leisure":null,"source":"OpenStreetMap via Overpass API"},"geometry":{"type":"Point","coordinates":[0.047818,51.550516]}},{"type":"Feature","properties":{"id":"node/13464016622","name":"Mayflower Tenants Association","category":"civic","osmType":"node","osmId":13464016622,"amenity":"community_centre","tourism":null,"shop":null,"office":null,"railway":null,"leisure":null,"source":"OpenStreetMap via Overpass API"},"geometry":{"type":"Point","coordinates":[-0.053227,51.497677]}},{"type":"Feature","properties":{"id":"node/13495359791","name":"204 (White City) Detachment ACF","category":"civic","osmType":"node","osmId":13495359791,"amenity":"community_centre","tourism":null,"shop":null,"office":null,"railway":null,"leisure":null,"source":"OpenStreetMap via Overpass API"},"geometry":{"type":"Point","coordinates":[-0.227241,51.512195]}},{"type":"Feature","properties":{"id":"node/13587474237","name":"civic","category":"civic","osmType":"node","osmId":13587474237,"amenity":"post_office","tourism":null,"shop":null,"office":null,"railway":null,"leisure":null,"source":"OpenStreetMap via Overpass API"},"geometry":{"type":"Point","coordinates":[-0.096346,51.456712]}},{"type":"Feature","properties":{"id":"node/13634476529","name":"civic","category":"civic","osmType":"node","osmId":13634476529,"amenity":"post_office","tourism":null,"shop":null,"office":null,"railway":null,"leisure":null,"source":"OpenStreetMap via Overpass API"},"geometry":{"type":"Point","coordinates":[-0.097931,51.495018]}},{"type":"Feature","properties":{"id":"node/13695816812","name":"Stroud Green Road Post Office","category":"civic","osmType":"node","osmId":13695816812,"amenity":"post_office","tourism":null,"shop":null,"office":null,"railway":null,"leisure":null,"source":"OpenStreetMap via Overpass API"},"geometry":{"type":"Point","coordinates":[-0.111387,51.568798]}},{"type":"Feature","properties":{"id":"node/13706419381","name":"Dragon Hall","category":"civic","osmType":"node","osmId":13706419381,"amenity":"community_centre","tourism":null,"shop":null,"office":null,"railway":null,"leisure":null,"source":"OpenStreetMap via Overpass API"},"geometry":{"type":"Point","coordinates":[-0.122517,51.516661]}},{"type":"Feature","properties":{"id":"node/13736089851","name":"Post Office","category":"civic","osmType":"node","osmId":13736089851,"amenity":"post_office","tourism":null,"shop":null,"office":null,"railway":null,"leisure":null,"source":"OpenStreetMap via Overpass API"},"geometry":{"type":"Point","coordinates":[-0.196646,51.499932]}},{"type":"Feature","properties":{"id":"node/1390303288","name":"Transport Police","category":"civic","osmType":"node","osmId":1390303288,"amenity":"police","tourism":null,"shop":null,"office":null,"railway":null,"leisure":null,"source":"OpenStreetMap via Overpass API"},"geometry":{"type":"Point","coordinates":[-0.081174,51.51789]}},{"type":"Feature","properties":{"id":"node/1439014441","name":"Ben Jonson Road Post Office","category":"civic","osmType":"node","osmId":1439014441,"amenity":"post_office","tourism":null,"shop":null,"office":null,"railway":null,"leisure":null,"source":"OpenStreetMap via Overpass API"},"geometry":{"type":"Point","coordinates":[-0.039731,51.517683]}},{"type":"Feature","properties":{"id":"node/1588957557","name":"Taylor House Tribunal Hearing Centre","category":"civic","osmType":"node","osmId":1588957557,"amenity":"courthouse","tourism":null,"shop":null,"office":null,"railway":null,"leisure":null,"source":"OpenStreetMap via Overpass API"},"geometry":{"type":"Point","coordinates":[-0.107501,51.52728]}},{"type":"Feature","properties":{"id":"node/1646172578","name":"Tompion Community Hall","category":"civic","osmType":"node","osmId":1646172578,"amenity":"community_centre","tourism":null,"shop":null,"office":null,"railway":null,"leisure":null,"source":"OpenStreetMap via Overpass API"},"geometry":{"type":"Point","coordinates":[-0.101539,51.526074]}},{"type":"Feature","properties":{"id":"node/1708662420","name":"Cubitt Town Post Office","category":"civic","osmType":"node","osmId":1708662420,"amenity":"post_office","tourism":null,"shop":null,"office":null,"railway":null,"leisure":null,"source":"OpenStreetMap via Overpass API"},"geometry":{"type":"Point","coordinates":[-0.010876,51.49822]}},{"type":"Feature","properties":{"id":"node/171318667","name":"High Street South Post Office","category":"civic","osmType":"node","osmId":171318667,"amenity":"post_office","tourism":null,"shop":null,"office":null,"railway":null,"leisure":null,"source":"OpenStreetMap via Overpass API"},"geometry":{"type":"Point","coordinates":[0.056532,51.525887]}},{"type":"Feature","properties":{"id":"node/1726841079","name":"civic","category":"civic","osmType":"node","osmId":1726841079,"amenity":"police","tourism":null,"shop":null,"office":null,"railway":null,"leisure":null,"source":"OpenStreetMap via Overpass API"},"geometry":{"type":"Point","coordinates":[-0.132925,51.471334]}},{"type":"Feature","properties":{"id":"node/1773757562","name":"Broadway Post Office","category":"civic","osmType":"node","osmId":1773757562,"amenity":"post_office","tourism":null,"shop":null,"office":null,"railway":null,"leisure":null,"source":"OpenStreetMap via Overpass API"},"geometry":{"type":"Point","coordinates":[-0.134004,51.498526]}},{"type":"Feature","properties":{"id":"node/1828785785","name":"Wyndham Road Post Office","category":"civic","osmType":"node","osmId":1828785785,"amenity":"post_office","tourism":null,"shop":null,"office":null,"railway":null,"leisure":null,"source":"OpenStreetMap via Overpass API"},"geometry":{"type":"Point","coordinates":[-0.101093,51.47783]}},{"type":"Feature","properties":{"id":"node/1843939120","name":"Southwark Pensioners Centre","category":"civic","osmType":"node","osmId":1843939120,"amenity":"community_centre","tourism":null,"shop":null,"office":null,"railway":null,"leisure":null,"source":"OpenStreetMap via Overpass API"},"geometry":{"type":"Point","coordinates":[-0.093543,51.476052]}},{"type":"Feature","properties":{"id":"node/1861526860","name":"Brunswick Close TMO Community Hall","category":"civic","osmType":"node","osmId":1861526860,"amenity":"community_centre","tourism":null,"shop":null,"office":null,"railway":null,"leisure":null,"source":"OpenStreetMap via Overpass API"},"geometry":{"type":"Point","coordinates":[-0.101786,51.526719]}},{"type":"Feature","properties":{"id":"node/1862943858","name":"Grosvenor Tra House","category":"civic","osmType":"node","osmId":1862943858,"amenity":"community_centre","tourism":null,"shop":null,"office":null,"railway":null,"leisure":null,"source":"OpenStreetMap via Overpass API"},"geometry":{"type":"Point","coordinates":[-0.097896,51.480954]}},{"type":"Feature","properties":{"id":"node/1888658089","name":"Upper Tooting Post Office","category":"civic","osmType":"node","osmId":1888658089,"amenity":"post_office","tourism":null,"shop":null,"office":null,"railway":null,"leisure":null,"source":"OpenStreetMap via Overpass API"},"geometry":{"type":"Point","coordinates":[-0.161649,51.436904]}},{"type":"Feature","properties":{"id":"node/1928536275","name":"Lavender Hill Magistrates' Court","category":"civic","osmType":"node","osmId":1928536275,"amenity":"courthouse","tourism":null,"shop":null,"office":null,"railway":null,"leisure":null,"source":"OpenStreetMap via Overpass API"},"geometry":{"type":"Point","coordinates":[-0.162525,51.464622]}},{"type":"Feature","properties":{"id":"node/1936163399","name":"Churchill Place Post Office","category":"civic","osmType":"node","osmId":1936163399,"amenity":"post_office","tourism":null,"shop":null,"office":null,"railway":null,"leisure":null,"source":"OpenStreetMap via Overpass API"},"geometry":{"type":"Point","coordinates":[-0.014298,51.50439]}},{"type":"Feature","properties":{"id":"node/1944287042","name":"Overseas Visitors Records Office","category":"civic","osmType":"node","osmId":1944287042,"amenity":"police","tourism":null,"shop":null,"office":null,"railway":null,"leisure":null,"source":"OpenStreetMap via Overpass API"},"geometry":{"type":"Point","coordinates":[-0.095686,51.499595]}},{"type":"Feature","properties":{"id":"node/1966015379","name":"Herne Hill Post Office","category":"civic","osmType":"node","osmId":1966015379,"amenity":"post_office","tourism":null,"shop":null,"office":null,"railway":null,"leisure":null,"source":"OpenStreetMap via Overpass API"},"geometry":{"type":"Point","coordinates":[-0.100997,51.451722]}},{"type":"Feature","properties":{"id":"node/1973894958","name":"Earlsfield Post Office","category":"civic","osmType":"node","osmId":1973894958,"amenity":"post_office","tourism":null,"shop":null,"office":null,"railway":null,"leisure":null,"source":"OpenStreetMap via Overpass API"},"geometry":{"type":"Point","coordinates":[-0.186605,51.439339]}},{"type":"Feature","properties":{"id":"node/2005461399","name":"Newington Green Road Post Office","category":"civic","osmType":"node","osmId":2005461399,"amenity":"post_office","tourism":null,"shop":null,"office":null,"railway":null,"leisure":null,"source":"OpenStreetMap via Overpass API"},"geometry":{"type":"Point","coordinates":[-0.086841,51.550137]}},{"type":"Feature","properties":{"id":"node/2064785325","name":"Jamaica Road Post Office","category":"civic","osmType":"node","osmId":2064785325,"amenity":"post_office","tourism":null,"shop":null,"office":null,"railway":null,"leisure":null,"source":"OpenStreetMap via Overpass API"},"geometry":{"type":"Point","coordinates":[-0.063251,51.498107]}},{"type":"Feature","properties":{"id":"node/2114495099","name":"Balham Hill Post Office","category":"civic","osmType":"node","osmId":2114495099,"amenity":"post_office","tourism":null,"shop":null,"office":null,"railway":null,"leisure":null,"source":"OpenStreetMap via Overpass API"},"geometry":{"type":"Point","coordinates":[-0.147815,51.452505]}},{"type":"Feature","properties":{"id":"node/2258373155","name":"Greyhound Lane Post Office","category":"civic","osmType":"node","osmId":2258373155,"amenity":"post_office","tourism":null,"shop":null,"office":null,"railway":null,"leisure":null,"source":"OpenStreetMap via Overpass API"},"geometry":{"type":"Point","coordinates":[-0.134527,51.418828]}},{"type":"Feature","properties":{"id":"node/2268065086","name":"Dhigs","category":"civic","osmType":"node","osmId":2268065086,"amenity":"post_office","tourism":null,"shop":null,"office":null,"railway":null,"leisure":null,"source":"OpenStreetMap via Overpass API"},"geometry":{"type":"Point","coordinates":[-0.184913,51.52465]}},{"type":"Feature","properties":{"id":"node/2413996183","name":"Asian Muslim Cultural Centre","category":"civic","osmType":"node","osmId":2413996183,"amenity":"community_centre","tourism":null,"shop":null,"office":null,"railway":null,"leisure":null,"source":"OpenStreetMap via Overpass API"},"geometry":{"type":"Point","coordinates":[-0.194192,51.522877]}},{"type":"Feature","properties":{"id":"node/2431577570","name":"Carpenters Tenant Management Organisation","category":"civic","osmType":"node","osmId":2431577570,"amenity":"community_centre","tourism":null,"shop":null,"office":null,"railway":null,"leisure":null,"source":"OpenStreetMap via Overpass API"},"geometry":{"type":"Point","coordinates":[-0.005944,51.537914]}},{"type":"Feature","properties":{"id":"node/2462272901","name":"Green Lanes Post Office","category":"civic","osmType":"node","osmId":2462272901,"amenity":"post_office","tourism":null,"shop":null,"office":null,"railway":null,"leisure":null,"source":"OpenStreetMap via Overpass API"},"geometry":{"type":"Point","coordinates":[-0.089825,51.555303]}},{"type":"Feature","properties":{"id":"node/250355929","name":"Streatham Police Station","category":"civic","osmType":"node","osmId":250355929,"amenity":"police","tourism":null,"shop":null,"office":null,"railway":null,"leisure":null,"source":"OpenStreetMap via Overpass API"},"geometry":{"type":"Point","coordinates":[-0.12963,51.430343]}},{"type":"Feature","properties":{"id":"node/252524761","name":"Hoxton Post Office","category":"civic","osmType":"node","osmId":252524761,"amenity":"post_office","tourism":null,"shop":null,"office":null,"railway":null,"leisure":null,"source":"OpenStreetMap via Overpass API"},"geometry":{"type":"Point","coordinates":[-0.080364,51.529888]}},{"type":"Feature","properties":{"id":"node/255469607","name":"Parks Police","category":"civic","osmType":"node","osmId":255469607,"amenity":"police","tourism":null,"shop":null,"office":null,"railway":null,"leisure":null,"source":"OpenStreetMap via Overpass API"},"geometry":{"type":"Point","coordinates":[-0.203551,51.501424]}},{"type":"Feature","properties":{"id":"node/255469730","name":"Queensway Post Office","category":"civic","osmType":"node","osmId":255469730,"amenity":"post_office","tourism":null,"shop":null,"office":null,"railway":null,"leisure":null,"source":"OpenStreetMap via Overpass API"},"geometry":{"type":"Point","coordinates":[-0.187662,51.514134]}},{"type":"Feature","properties":{"id":"node/263018282","name":"Stoke Newington Post Office","category":"civic","osmType":"node","osmId":263018282,"amenity":"post_office","tourism":null,"shop":null,"office":null,"railway":null,"leisure":null,"source":"OpenStreetMap via Overpass API"},"geometry":{"type":"Point","coordinates":[-0.073626,51.561116]}},{"type":"Feature","properties":{"id":"node/266138028","name":"Brixton Fire Station","category":"civic","osmType":"node","osmId":266138028,"amenity":"fire_station","tourism":null,"shop":null,"office":null,"railway":null,"leisure":null,"source":"OpenStreetMap via Overpass API"},"geometry":{"type":"Point","coordinates":[-0.109406,51.463738]}},{"type":"Feature","properties":{"id":"node/268523611","name":"Barking Road Post Office","category":"civic","osmType":"node","osmId":268523611,"amenity":"post_office","tourism":null,"shop":null,"office":null,"railway":null,"leisure":null,"source":"OpenStreetMap via Overpass API"},"geometry":{"type":"Point","coordinates":[0.059025,51.533764]}},{"type":"Feature","properties":{"id":"node/271286420","name":"West Ferry Road Post Office","category":"civic","osmType":"node","osmId":271286420,"amenity":"post_office","tourism":null,"shop":null,"office":null,"railway":null,"leisure":null,"source":"OpenStreetMap via Overpass API"},"geometry":{"type":"Point","coordinates":[-0.021067,51.489495]}},{"type":"Feature","properties":{"id":"node/273542284","name":"Brixton Post Office","category":"civic","osmType":"node","osmId":273542284,"amenity":"post_office","tourism":null,"shop":null,"office":null,"railway":null,"leisure":null,"source":"OpenStreetMap via Overpass API"},"geometry":{"type":"Point","coordinates":[-0.116046,51.464117]}},{"type":"Feature","properties":{"id":"node/275070454","name":"Forest Gate Post Office","category":"civic","osmType":"node","osmId":275070454,"amenity":"post_office","tourism":null,"shop":null,"office":null,"railway":null,"leisure":null,"source":"OpenStreetMap via Overpass API"},"geometry":{"type":"Point","coordinates":[0.025103,51.547516]}},{"type":"Feature","properties":{"id":"node/278514721","name":"Brecknock Road Post Office","category":"civic","osmType":"node","osmId":278514721,"amenity":"post_office","tourism":null,"shop":null,"office":null,"railway":null,"leisure":null,"source":"OpenStreetMap via Overpass API"},"geometry":{"type":"Point","coordinates":[-0.12978,51.54945]}},{"type":"Feature","properties":{"id":"node/281578825","name":"Roman Road Post Office","category":"civic","osmType":"node","osmId":281578825,"amenity":"post_office","tourism":null,"shop":null,"office":null,"railway":null,"leisure":null,"source":"OpenStreetMap via Overpass API"},"geometry":{"type":"Point","coordinates":[-0.046735,51.529045]}},{"type":"Feature","properties":{"id":"node/281717299","name":"Regents Park Road Post Office","category":"civic","osmType":"node","osmId":281717299,"amenity":"post_office","tourism":null,"shop":null,"office":null,"railway":null,"leisure":null,"source":"OpenStreetMap via Overpass API"},"geometry":{"type":"Point","coordinates":[-0.156911,51.541854]}},{"type":"Feature","properties":{"id":"node/282618048","name":"Southwark Post Office","category":"civic","osmType":"node","osmId":282618048,"amenity":"post_office","tourism":null,"shop":null,"office":null,"railway":null,"leisure":null,"source":"OpenStreetMap via Overpass API"},"geometry":{"type":"Point","coordinates":[-0.099192,51.500572]}},{"type":"Feature","properties":{"id":"node/283610436","name":"Saint Barnabas Parish Hall","category":"civic","osmType":"node","osmId":283610436,"amenity":"community_centre","tourism":null,"shop":null,"office":null,"railway":null,"leisure":null,"source":"OpenStreetMap via Overpass API"},"geometry":{"type":"Point","coordinates":[-0.086096,51.451666]}},{"type":"Feature","properties":{"id":"node/283862399","name":"Ensign Youth Club","category":"civic","osmType":"node","osmId":283862399,"amenity":"community_centre","tourism":null,"shop":null,"office":null,"railway":null,"leisure":null,"source":"OpenStreetMap via Overpass API"},"geometry":{"type":"Point","coordinates":[-0.065623,51.509659]}},{"type":"Feature","properties":{"id":"node/290359025","name":"Customer Service Royal Mail","category":"civic","osmType":"node","osmId":290359025,"amenity":"post_office","tourism":null,"shop":null,"office":null,"railway":null,"leisure":null,"source":"OpenStreetMap via Overpass API"},"geometry":{"type":"Point","coordinates":[-0.15159,51.446376]}},{"type":"Feature","properties":{"id":"node/291450909","name":"Dalston Lane Post Office","category":"civic","osmType":"node","osmId":291450909,"amenity":"post_office","tourism":null,"shop":null,"office":null,"railway":null,"leisure":null,"source":"OpenStreetMap via Overpass API"},"geometry":{"type":"Point","coordinates":[-0.058724,51.549402]}},{"type":"Feature","properties":{"id":"node/291977684","name":"Brixton Hill Post Office","category":"civic","osmType":"node","osmId":291977684,"amenity":"post_office","tourism":null,"shop":null,"office":null,"railway":null,"leisure":null,"source":"OpenStreetMap via Overpass API"},"geometry":{"type":"Point","coordinates":[-0.120192,51.454354]}},{"type":"Feature","properties":{"id":"node/293813406","name":"Albany Street Police Station","category":"civic","osmType":"node","osmId":293813406,"amenity":"police","tourism":null,"shop":null,"office":null,"railway":null,"leisure":null,"source":"OpenStreetMap via Overpass API"},"geometry":{"type":"Point","coordinates":[-0.144008,51.526549]}},{"type":"Feature","properties":{"id":"node/295469795","name":"Knightsbridge Post Office","category":"civic","osmType":"node","osmId":295469795,"amenity":"post_office","tourism":null,"shop":null,"office":null,"railway":null,"leisure":null,"source":"OpenStreetMap via Overpass API"},"geometry":{"type":"Point","coordinates":[-0.162901,51.500938]}},{"type":"Feature","properties":{"id":"node/297204937","name":"Kennington Park Post Office","category":"civic","osmType":"node","osmId":297204937,"amenity":"post_office","tourism":null,"shop":null,"office":null,"railway":null,"leisure":null,"source":"OpenStreetMap via Overpass API"},"geometry":{"type":"Point","coordinates":[-0.110581,51.484672]}},{"type":"Feature","properties":{"id":"node/305468981","name":"Victoria Park Post Office","category":"civic","osmType":"node","osmId":305468981,"amenity":"post_office","tourism":null,"shop":null,"office":null,"railway":null,"leisure":null,"source":"OpenStreetMap via Overpass API"},"geometry":{"type":"Point","coordinates":[-0.045049,51.537851]}},{"type":"Feature","properties":{"id":"node/3065516759","name":"Mayfield House Somali Day Centre","category":"civic","osmType":"node","osmId":3065516759,"amenity":"community_centre","tourism":null,"shop":null,"office":null,"railway":null,"leisure":null,"source":"OpenStreetMap via Overpass API"},"geometry":{"type":"Point","coordinates":[-0.05585,51.529852]}},{"type":"Feature","properties":{"id":"node/3130435824","name":"City of London Coroners Court","category":"civic","osmType":"node","osmId":3130435824,"amenity":"courthouse","tourism":null,"shop":null,"office":null,"railway":null,"leisure":null,"source":"OpenStreetMap via Overpass API"},"geometry":{"type":"Point","coordinates":[-0.09182,51.510402]}},{"type":"Feature","properties":{"id":"node/313181151","name":"St Pancras Community Centre","category":"civic","osmType":"node","osmId":313181151,"amenity":"community_centre","tourism":null,"shop":null,"office":null,"railway":null,"leisure":null,"source":"OpenStreetMap via Overpass API"},"geometry":{"type":"Point","coordinates":[-0.136068,51.536359]}},{"type":"Feature","properties":{"id":"node/3217417461","name":"multi purpose resource centre","category":"civic","osmType":"node","osmId":3217417461,"amenity":"community_centre","tourism":null,"shop":null,"office":null,"railway":null,"leisure":null,"source":"OpenStreetMap via Overpass API"},"geometry":{"type":"Point","coordinates":[-0.105654,51.49888]}},{"type":"Feature","properties":{"id":"node/3242848841","name":"DX Delivered Exactly","category":"civic","osmType":"node","osmId":3242848841,"amenity":"post_office","tourism":null,"shop":null,"office":null,"railway":null,"leisure":null,"source":"OpenStreetMap via Overpass API"},"geometry":{"type":"Point","coordinates":[-0.078596,51.515162]}},{"type":"Feature","properties":{"id":"node/3248942232","name":"Bankside Community Space","category":"civic","osmType":"node","osmId":3248942232,"amenity":"community_centre","tourism":null,"shop":null,"office":null,"railway":null,"leisure":null,"source":"OpenStreetMap via Overpass API"},"geometry":{"type":"Point","coordinates":[-0.09779,51.506054]}},{"type":"Feature","properties":{"id":"node/331903966","name":"High Street North (406) Post Office","category":"civic","osmType":"node","osmId":331903966,"amenity":"post_office","tourism":null,"shop":null,"office":null,"railway":null,"leisure":null,"source":"OpenStreetMap via Overpass API"},"geometry":{"type":"Point","coordinates":[0.049578,51.545438]}},{"type":"Feature","properties":{"id":"node/332431931","name":"Bonnington Cafe","category":"civic","osmType":"node","osmId":332431931,"amenity":"community_centre","tourism":null,"shop":null,"office":null,"railway":null,"leisure":null,"source":"OpenStreetMap via Overpass API"},"geometry":{"type":"Point","coordinates":[-0.120148,51.484655]}},{"type":"Feature","properties":{"id":"node/333786070","name":"East Ham Post Office","category":"civic","osmType":"node","osmId":333786070,"amenity":"post_office","tourism":null,"shop":null,"office":null,"railway":null,"leisure":null,"source":"OpenStreetMap via Overpass API"},"geometry":{"type":"Point","coordinates":[0.052045,51.536524]}},{"type":"Feature","properties":{"id":"node/33706640","name":"Streatham Hill Post Office","category":"civic","osmType":"node","osmId":33706640,"amenity":"post_office","tourism":null,"shop":null,"office":null,"railway":null,"leisure":null,"source":"OpenStreetMap via Overpass API"},"geometry":{"type":"Point","coordinates":[-0.125621,51.440636]}},{"type":"Feature","properties":{"id":"node/3375144297","name":"Napier Grove Community Centre","category":"civic","osmType":"node","osmId":3375144297,"amenity":"community_centre","tourism":null,"shop":null,"office":null,"railway":null,"leisure":null,"source":"OpenStreetMap via Overpass API"},"geometry":{"type":"Point","coordinates":[-0.092631,51.532293]}},{"type":"Feature","properties":{"id":"node/3383010811","name":"Holloway Post Office","category":"civic","osmType":"node","osmId":3383010811,"amenity":"post_office","tourism":null,"shop":null,"office":null,"railway":null,"leisure":null,"source":"OpenStreetMap via Overpass API"},"geometry":{"type":"Point","coordinates":[-0.115246,51.559902]}},{"type":"Feature","properties":{"id":"node/341231564","name":"Eccleston Street Post Office","category":"civic","osmType":"node","osmId":341231564,"amenity":"post_office","tourism":null,"shop":null,"office":null,"railway":null,"leisure":null,"source":"OpenStreetMap via Overpass API"},"geometry":{"type":"Point","coordinates":[-0.147555,51.494481]}},{"type":"Feature","properties":{"id":"node/343356919","name":"Brixton Road Post Office","category":"civic","osmType":"node","osmId":343356919,"amenity":"post_office","tourism":null,"shop":null,"office":null,"railway":null,"leisure":null,"source":"OpenStreetMap via Overpass API"},"geometry":{"type":"Point","coordinates":[-0.112322,51.478345]}},{"type":"Feature","properties":{"id":"node/343588111","name":"Finsbury Park Post Office","category":"civic","osmType":"node","osmId":343588111,"amenity":"post_office","tourism":null,"shop":null,"office":null,"railway":null,"leisure":null,"source":"OpenStreetMap via Overpass API"},"geometry":{"type":"Point","coordinates":[-0.103791,51.564895]}},{"type":"Feature","properties":{"id":"node/3440712493","name":"Kensington Post Office","category":"civic","osmType":"node","osmId":3440712493,"amenity":"post_office","tourism":null,"shop":null,"office":null,"railway":null,"leisure":null,"source":"OpenStreetMap via Overpass API"},"geometry":{"type":"Point","coordinates":[-0.197814,51.499487]}},{"type":"Feature","properties":{"id":"node/3455504293","name":"Vauxhall Street Post Office","category":"civic","osmType":"node","osmId":3455504293,"amenity":"post_office","tourism":null,"shop":null,"office":null,"railway":null,"leisure":null,"source":"OpenStreetMap via Overpass API"},"geometry":{"type":"Point","coordinates":[-0.117363,51.489196]}},{"type":"Feature","properties":{"id":"node/3501004861","name":"Post Office & Shop","category":"civic","osmType":"node","osmId":3501004861,"amenity":"post_office","tourism":null,"shop":null,"office":null,"railway":null,"leisure":null,"source":"OpenStreetMap via Overpass API"},"geometry":{"type":"Point","coordinates":[-0.191942,51.545824]}},{"type":"Feature","properties":{"id":"node/353919661","name":"civic","category":"civic","osmType":"node","osmId":353919661,"amenity":"post_office","tourism":null,"shop":null,"office":null,"railway":null,"leisure":null,"source":"OpenStreetMap via Overpass API"},"geometry":{"type":"Point","coordinates":[-0.121642,51.565981]}},{"type":"Feature","properties":{"id":"node/3600145790","name":"Lower Regent Street Post Office","category":"civic","osmType":"node","osmId":3600145790,"amenity":"post_office","tourism":null,"shop":null,"office":null,"railway":null,"leisure":null,"source":"OpenStreetMap via Overpass API"},"geometry":{"type":"Point","coordinates":[-0.133876,51.50836]}},{"type":"Feature","properties":{"id":"node/362323822","name":"Holloway Road Post Office","category":"civic","osmType":"node","osmId":362323822,"amenity":"post_office","tourism":null,"shop":null,"office":null,"railway":null,"leisure":null,"source":"OpenStreetMap via Overpass API"},"geometry":{"type":"Point","coordinates":[-0.108875,51.550332]}},{"type":"Feature","properties":{"id":"node/3632715082","name":"Whitechapel Post Office","category":"civic","osmType":"node","osmId":3632715082,"amenity":"post_office","tourism":null,"shop":null,"office":null,"railway":null,"leisure":null,"source":"OpenStreetMap via Overpass API"},"geometry":{"type":"Point","coordinates":[-0.057599,51.519382]}},{"type":"Feature","properties":{"id":"node/3639334561","name":"Mail Boxes Etc.","category":"civic","osmType":"node","osmId":3639334561,"amenity":"post_office","tourism":null,"shop":null,"office":null,"railway":null,"leisure":null,"source":"OpenStreetMap via Overpass API"},"geometry":{"type":"Point","coordinates":[-0.105696,51.547421]}},{"type":"Feature","properties":{"id":"node/371400302","name":"High Holborn Post Office","category":"civic","osmType":"node","osmId":371400302,"amenity":"post_office","tourism":null,"shop":null,"office":null,"railway":null,"leisure":null,"source":"OpenStreetMap via Overpass API"},"geometry":{"type":"Point","coordinates":[-0.123914,51.51644]}},{"type":"Feature","properties":{"id":"node/3835357215","name":"Canary Wharf Post Office","category":"civic","osmType":"node","osmId":3835357215,"amenity":"post_office","tourism":null,"shop":null,"office":null,"railway":null,"leisure":null,"source":"OpenStreetMap via Overpass API"},"geometry":{"type":"Point","coordinates":[-0.021978,51.504699]}},{"type":"Feature","properties":{"id":"node/3838047416","name":"Woodberry Grove Post Office","category":"civic","osmType":"node","osmId":3838047416,"amenity":"post_office","tourism":null,"shop":null,"office":null,"railway":null,"leisure":null,"source":"OpenStreetMap via Overpass API"},"geometry":{"type":"Point","coordinates":[-0.089695,51.571283]}},{"type":"Feature","properties":{"id":"node/3874442569","name":"London Action Resource Centre","category":"civic","osmType":"node","osmId":3874442569,"amenity":"community_centre","tourism":null,"shop":null,"office":null,"railway":null,"leisure":null,"source":"OpenStreetMap via Overpass API"},"geometry":{"type":"Point","coordinates":[-0.063908,51.517022]}},{"type":"Feature","properties":{"id":"node/3892264306","name":"Old Kent Road Post Office","category":"civic","osmType":"node","osmId":3892264306,"amenity":"post_office","tourism":null,"shop":null,"office":null,"railway":null,"leisure":null,"source":"OpenStreetMap via Overpass API"},"geometry":{"type":"Point","coordinates":[-0.079201,51.489381]}},{"type":"Feature","properties":{"id":"node/3895972249","name":"Maiden Lane Community Centre","category":"civic","osmType":"node","osmId":3895972249,"amenity":"community_centre","tourism":null,"shop":null,"office":null,"railway":null,"leisure":null,"source":"OpenStreetMap via Overpass API"},"geometry":{"type":"Point","coordinates":[-0.128754,51.541408]}},{"type":"Feature","properties":{"id":"node/3924039950","name":"Whitmore Community Centre","category":"civic","osmType":"node","osmId":3924039950,"amenity":"community_centre","tourism":null,"shop":null,"office":null,"railway":null,"leisure":null,"source":"OpenStreetMap via Overpass API"},"geometry":{"type":"Point","coordinates":[-0.077485,51.535769]}},{"type":"Feature","properties":{"id":"node/3964556371","name":"St Michael's Centre","category":"civic","osmType":"node","osmId":3964556371,"amenity":"community_centre","tourism":null,"shop":null,"office":null,"railway":null,"leisure":null,"source":"OpenStreetMap via Overpass API"},"geometry":{"type":"Point","coordinates":[-0.185353,51.470212]}},{"type":"Feature","properties":{"id":"node/3965854554","name":"Tooting Islamic Centre","category":"civic","osmType":"node","osmId":3965854554,"amenity":"community_centre","tourism":null,"shop":null,"office":null,"railway":null,"leisure":null,"source":"OpenStreetMap via Overpass API"},"geometry":{"type":"Point","coordinates":[-0.163602,51.432477]}},{"type":"Feature","properties":{"id":"node/3973507316","name":"Spitalfields Community Room","category":"civic","osmType":"node","osmId":3973507316,"amenity":"community_centre","tourism":null,"shop":null,"office":null,"railway":null,"leisure":null,"source":"OpenStreetMap via Overpass API"},"geometry":{"type":"Point","coordinates":[-0.069033,51.520049]}},{"type":"Feature","properties":{"id":"node/4000431605","name":"civic","category":"civic","osmType":"node","osmId":4000431605,"amenity":"post_office","tourism":null,"shop":null,"office":null,"railway":null,"leisure":null,"source":"OpenStreetMap via Overpass API"},"geometry":{"type":"Point","coordinates":[-0.113792,51.469035]}},{"type":"Feature","properties":{"id":"node/402378383","name":"Wormholt Tenants’ and Residents’ Association Community Centre","category":"civic","osmType":"node","osmId":402378383,"amenity":"community_centre","tourism":null,"shop":null,"office":null,"railway":null,"leisure":null,"source":"OpenStreetMap via Overpass API"},"geometry":{"type":"Point","coordinates":[-0.242815,51.513802]}},{"type":"Feature","properties":{"id":"node/4070110892","name":"The Centre Community Hall","category":"civic","osmType":"node","osmId":4070110892,"amenity":"community_centre","tourism":null,"shop":null,"office":null,"railway":null,"leisure":null,"source":"OpenStreetMap via Overpass API"},"geometry":{"type":"Point","coordinates":[-0.02611,51.525505]}},{"type":"Feature","properties":{"id":"node/4079239856","name":"Cedars Post Office","category":"civic","osmType":"node","osmId":4079239856,"amenity":"post_office","tourism":null,"shop":null,"office":null,"railway":null,"leisure":null,"source":"OpenStreetMap via Overpass API"},"geometry":{"type":"Point","coordinates":[-0.150869,51.467633]}},{"type":"Feature","properties":{"id":"node/4085693312","name":"Wapping Post Office","category":"civic","osmType":"node","osmId":4085693312,"amenity":"post_office","tourism":null,"shop":null,"office":null,"railway":null,"leisure":null,"source":"OpenStreetMap via Overpass API"},"geometry":{"type":"Point","coordinates":[-0.058239,51.505363]}},{"type":"Feature","properties":{"id":"node/409888612","name":"British Transport Police","category":"civic","osmType":"node","osmId":409888612,"amenity":"police","tourism":null,"shop":null,"office":null,"railway":null,"leisure":null,"source":"OpenStreetMap via Overpass API"},"geometry":{"type":"Point","coordinates":[-0.110804,51.502448]}},{"type":"Feature","properties":{"id":"node/410623388","name":"Westminster Bridge Road Post Office","category":"civic","osmType":"node","osmId":410623388,"amenity":"post_office","tourism":null,"shop":null,"office":null,"railway":null,"leisure":null,"source":"OpenStreetMap via Overpass API"},"geometry":{"type":"Point","coordinates":[-0.113737,51.499375]}},{"type":"Feature","properties":{"id":"node/415803936","name":"civic","category":"civic","osmType":"node","osmId":415803936,"amenity":"community_centre","tourism":null,"shop":null,"office":null,"railway":null,"leisure":null,"source":"OpenStreetMap via Overpass API"},"geometry":{"type":"Point","coordinates":[-0.077552,51.476583]}},{"type":"Feature","properties":{"id":"node/4166583591","name":"Naish Court Youth and Community Trust","category":"civic","osmType":"node","osmId":4166583591,"amenity":"community_centre","tourism":null,"shop":null,"office":null,"railway":null,"leisure":null,"source":"OpenStreetMap via Overpass API"},"geometry":{"type":"Point","coordinates":[-0.119716,51.537042]}},{"type":"Feature","properties":{"id":"node/417182682","name":"Rushmore Road Post Office","category":"civic","osmType":"node","osmId":417182682,"amenity":"post_office","tourism":null,"shop":null,"office":null,"railway":null,"leisure":null,"source":"OpenStreetMap via Overpass API"},"geometry":{"type":"Point","coordinates":[-0.039267,51.555787]}},{"type":"Feature","properties":{"id":"node/418985774","name":"Lupus Street Post Office","category":"civic","osmType":"node","osmId":418985774,"amenity":"post_office","tourism":null,"shop":null,"office":null,"railway":null,"leisure":null,"source":"OpenStreetMap via Overpass API"},"geometry":{"type":"Point","coordinates":[-0.14215,51.487572]}},{"type":"Feature","properties":{"id":"node/4221674910","name":"Seeley Drive Post Office","category":"civic","osmType":"node","osmId":4221674910,"amenity":"post_office","tourism":null,"shop":null,"office":null,"railway":null,"leisure":null,"source":"OpenStreetMap via Overpass API"},"geometry":{"type":"Point","coordinates":[-0.080061,51.430262]}},{"type":"Feature","properties":{"id":"node/4225998645","name":"civic","category":"civic","osmType":"node","osmId":4225998645,"amenity":"community_centre","tourism":null,"shop":null,"office":null,"railway":null,"leisure":null,"source":"OpenStreetMap via Overpass API"},"geometry":{"type":"Point","coordinates":[-0.111791,51.48363]}},{"type":"Feature","properties":{"id":"node/4264704971","name":"Latinos Help Centre","category":"civic","osmType":"node","osmId":4264704971,"amenity":"community_centre","tourism":null,"shop":null,"office":null,"railway":null,"leisure":null,"source":"OpenStreetMap via Overpass API"},"geometry":{"type":"Point","coordinates":[-0.111303,51.49552]}},{"type":"Feature","properties":{"id":"node/4274632230","name":"Battersea Park Road Post Office","category":"civic","osmType":"node","osmId":4274632230,"amenity":"post_office","tourism":null,"shop":null,"office":null,"railway":null,"leisure":null,"source":"OpenStreetMap via Overpass API"},"geometry":{"type":"Point","coordinates":[-0.148529,51.476428]}},{"type":"Feature","properties":{"id":"node/4281045108","name":"Doddle","category":"civic","osmType":"node","osmId":4281045108,"amenity":"post_office","tourism":null,"shop":null,"office":null,"railway":null,"leisure":null,"source":"OpenStreetMap via Overpass API"},"geometry":{"type":"Point","coordinates":[-0.080837,51.517527]}},{"type":"Feature","properties":{"id":"node/430456348","name":"Globe Road Post Office","category":"civic","osmType":"node","osmId":430456348,"amenity":"post_office","tourism":null,"shop":null,"office":null,"railway":null,"leisure":null,"source":"OpenStreetMap via Overpass API"},"geometry":{"type":"Point","coordinates":[-0.046869,51.52269]}},{"type":"Feature","properties":{"id":"node/4362067190","name":"Highbury Park Post Office","category":"civic","osmType":"node","osmId":4362067190,"amenity":"post_office","tourism":null,"shop":null,"office":null,"railway":null,"leisure":null,"source":"OpenStreetMap via Overpass API"},"geometry":{"type":"Point","coordinates":[-0.098204,51.553425]}},{"type":"Feature","properties":{"id":"node/4371766199","name":"Leytonstone Road Post Office","category":"civic","osmType":"node","osmId":4371766199,"amenity":"post_office","tourism":null,"shop":null,"office":null,"railway":null,"leisure":null,"source":"OpenStreetMap via Overpass API"},"geometry":{"type":"Point","coordinates":[0.005322,51.55059]}},{"type":"Feature","properties":{"id":"node/438170509","name":"Principal Registry of the Family Division","category":"civic","osmType":"node","osmId":438170509,"amenity":"courthouse","tourism":null,"shop":null,"office":null,"railway":null,"leisure":null,"source":"OpenStreetMap via Overpass API"},"geometry":{"type":"Point","coordinates":[-0.114608,51.518275]}},{"type":"Feature","properties":{"id":"node/4416758112","name":"Crowndale Road Post Office","category":"civic","osmType":"node","osmId":4416758112,"amenity":"post_office","tourism":null,"shop":null,"office":null,"railway":null,"leisure":null,"source":"OpenStreetMap via Overpass API"},"geometry":{"type":"Point","coordinates":[-0.134406,51.535483]}},{"type":"Feature","properties":{"id":"node/4418165421","name":"Bishop Creighton House","category":"civic","osmType":"node","osmId":4418165421,"amenity":"community_centre","tourism":null,"shop":null,"office":null,"railway":null,"leisure":null,"source":"OpenStreetMap via Overpass API"},"geometry":{"type":"Point","coordinates":[-0.217749,51.483537]}},{"type":"Feature","properties":{"id":"node/4432547600","name":"Onflight Couriers","category":"civic","osmType":"node","osmId":4432547600,"amenity":"post_office","tourism":null,"shop":null,"office":null,"railway":null,"leisure":null,"source":"OpenStreetMap via Overpass API"},"geometry":{"type":"Point","coordinates":[-0.096857,51.52679]}},{"type":"Feature","properties":{"id":"node/4438311748","name":"Consort Tenants and Residents Association","category":"civic","osmType":"node","osmId":4438311748,"amenity":"community_centre","tourism":null,"shop":null,"office":null,"railway":null,"leisure":null,"source":"OpenStreetMap via Overpass API"},"geometry":{"type":"Point","coordinates":[-0.063722,51.465837]}},{"type":"Feature","properties":{"id":"node/4480934030","name":"The Redmond Community Centre","category":"civic","osmType":"node","osmId":4480934030,"amenity":"community_centre","tourism":null,"shop":null,"office":null,"railway":null,"leisure":null,"source":"OpenStreetMap via Overpass API"},"geometry":{"type":"Point","coordinates":[-0.091392,51.569977]}},{"type":"Feature","properties":{"id":"node/4491500292","name":"Elm Park Post Office","category":"civic","osmType":"node","osmId":4491500292,"amenity":"post_office","tourism":null,"shop":null,"office":null,"railway":null,"leisure":null,"source":"OpenStreetMap via Overpass API"},"geometry":{"type":"Point","coordinates":[-0.117822,51.449449]}},{"type":"Feature","properties":{"id":"node/450211932","name":"civic","category":"civic","osmType":"node","osmId":450211932,"amenity":"post_office","tourism":null,"shop":null,"office":null,"railway":null,"leisure":null,"source":"OpenStreetMap via Overpass API"},"geometry":{"type":"Point","coordinates":[-0.163098,51.490211]}},{"type":"Feature","properties":{"id":"node/452433537","name":"Mount Pleasant Post Office","category":"civic","osmType":"node","osmId":452433537,"amenity":"post_office","tourism":null,"shop":null,"office":null,"railway":null,"leisure":null,"source":"OpenStreetMap via Overpass API"},"geometry":{"type":"Point","coordinates":[-0.110872,51.52493]}},{"type":"Feature","properties":{"id":"node/4544970850","name":"Barking Road (774) Post Office","category":"civic","osmType":"node","osmId":4544970850,"amenity":"post_office","tourism":null,"shop":null,"office":null,"railway":null,"leisure":null,"source":"OpenStreetMap via Overpass API"},"geometry":{"type":"Point","coordinates":[0.037237,51.530077]}},{"type":"Feature","properties":{"id":"node/4557249189","name":"Omnibus","category":"civic","osmType":"node","osmId":4557249189,"amenity":"community_centre","tourism":null,"shop":null,"office":null,"railway":null,"leisure":null,"source":"OpenStreetMap via Overpass API"},"geometry":{"type":"Point","coordinates":[-0.142321,51.463623]}},{"type":"Feature","properties":{"id":"node/4607932896","name":"Leyton House Working Mens Club And Institute","category":"civic","osmType":"node","osmId":4607932896,"amenity":"community_centre","tourism":null,"shop":null,"office":null,"railway":null,"leisure":null,"source":"OpenStreetMap via Overpass API"},"geometry":{"type":"Point","coordinates":[-0.002892,51.55032]}},{"type":"Feature","properties":{"id":"node/4633517731","name":"Cherry Garden Hall","category":"civic","osmType":"node","osmId":4633517731,"amenity":"community_centre","tourism":null,"shop":null,"office":null,"railway":null,"leisure":null,"source":"OpenStreetMap via Overpass API"},"geometry":{"type":"Point","coordinates":[-0.06079,51.498284]}},{"type":"Feature","properties":{"id":"node/469456583","name":"Carribean Community Centre & Day Nursery","category":"civic","osmType":"node","osmId":469456583,"amenity":"community_centre","tourism":null,"shop":null,"office":null,"railway":null,"leisure":null,"source":"OpenStreetMap via Overpass API"},"geometry":{"type":"Point","coordinates":[-0.096534,51.569953]}},{"type":"Feature","properties":{"id":"node/4695371161","name":"Murray Grove Post Office","category":"civic","osmType":"node","osmId":4695371161,"amenity":"post_office","tourism":null,"shop":null,"office":null,"railway":null,"leisure":null,"source":"OpenStreetMap via Overpass API"},"geometry":{"type":"Point","coordinates":[-0.0889,51.531044]}},{"type":"Feature","properties":{"id":"node/4715801586","name":"Royal British Legion","category":"civic","osmType":"node","osmId":4715801586,"amenity":"community_centre","tourism":null,"shop":null,"office":null,"railway":null,"leisure":null,"source":"OpenStreetMap via Overpass API"},"geometry":{"type":"Point","coordinates":[0.045972,51.502752]}},{"type":"Feature","properties":{"id":"node/4730679163","name":"Romford Road (667) Post Office","category":"civic","osmType":"node","osmId":4730679163,"amenity":"post_office","tourism":null,"shop":null,"office":null,"railway":null,"leisure":null,"source":"OpenStreetMap via Overpass API"},"geometry":{"type":"Point","coordinates":[0.046442,51.550358]}},{"type":"Feature","properties":{"id":"node/473261115","name":"Dowgate Fire Station","category":"civic","osmType":"node","osmId":473261115,"amenity":"fire_station","tourism":null,"shop":null,"office":null,"railway":null,"leisure":null,"source":"OpenStreetMap via Overpass API"},"geometry":{"type":"Point","coordinates":[-0.090101,51.510035]}},{"type":"Feature","properties":{"id":"node/4735810180","name":"Poplar Union","category":"civic","osmType":"node","osmId":4735810180,"amenity":"community_centre","tourism":null,"shop":null,"office":null,"railway":null,"leisure":null,"source":"OpenStreetMap via Overpass API"},"geometry":{"type":"Point","coordinates":[-0.023186,51.51561]}},{"type":"Feature","properties":{"id":"node/4795157426","name":"Lennox Community Centre","category":"civic","osmType":"node","osmId":4795157426,"amenity":"community_centre","tourism":null,"shop":null,"office":null,"railway":null,"leisure":null,"source":"OpenStreetMap via Overpass API"},"geometry":{"type":"Point","coordinates":[-0.252879,51.464257]}},{"type":"Feature","properties":{"id":"node/4818149163","name":"Dulwich Village Post Office","category":"civic","osmType":"node","osmId":4818149163,"amenity":"post_office","tourism":null,"shop":null,"office":null,"railway":null,"leisure":null,"source":"OpenStreetMap via Overpass API"},"geometry":{"type":"Point","coordinates":[-0.085491,51.451005]}},{"type":"Feature","properties":{"id":"node/48202189","name":"London Fields Post Office","category":"civic","osmType":"node","osmId":48202189,"amenity":"post_office","tourism":null,"shop":null,"office":null,"railway":null,"leisure":null,"source":"OpenStreetMap via Overpass API"},"geometry":{"type":"Point","coordinates":[-0.061817,51.53679]}},{"type":"Feature","properties":{"id":"node/4842732307","name":"Worlds End Post Office","category":"civic","osmType":"node","osmId":4842732307,"amenity":"post_office","tourism":null,"shop":null,"office":null,"railway":null,"leisure":null,"source":"OpenStreetMap via Overpass API"},"geometry":{"type":"Point","coordinates":[-0.176624,51.483924]}},{"type":"Feature","properties":{"id":"node/5008893922","name":"Stepney City Farm","category":"civic","osmType":"node","osmId":5008893922,"amenity":"community_centre","tourism":null,"shop":null,"office":null,"railway":null,"leisure":null,"source":"OpenStreetMap via Overpass API"},"geometry":{"type":"Point","coordinates":[-0.042909,51.516992]}},{"type":"Feature","properties":{"id":"node/5062522705","name":"York Road Post Office","category":"civic","osmType":"node","osmId":5062522705,"amenity":"post_office","tourism":null,"shop":null,"office":null,"railway":null,"leisure":null,"source":"OpenStreetMap via Overpass API"},"geometry":{"type":"Point","coordinates":[-0.171114,51.469983]}},{"type":"Feature","properties":{"id":"node/506310014","name":"Vauxhall Bridge Road Post Office","category":"civic","osmType":"node","osmId":506310014,"amenity":"post_office","tourism":null,"shop":null,"office":null,"railway":null,"leisure":null,"source":"OpenStreetMap via Overpass API"},"geometry":{"type":"Point","coordinates":[-0.137796,51.492431]}},{"type":"Feature","properties":{"id":"node/508588597","name":"Paddington Quay Post Office","category":"civic","osmType":"node","osmId":508588597,"amenity":"post_office","tourism":null,"shop":null,"office":null,"railway":null,"leisure":null,"source":"OpenStreetMap via Overpass API"},"geometry":{"type":"Point","coordinates":[-0.170695,51.518501]}},{"type":"Feature","properties":{"id":"node/510155938","name":"Balham Post Office","category":"civic","osmType":"node","osmId":510155938,"amenity":"post_office","tourism":null,"shop":null,"office":null,"railway":null,"leisure":null,"source":"OpenStreetMap via Overpass API"},"geometry":{"type":"Point","coordinates":[-0.149894,51.446276]}},{"type":"Feature","properties":{"id":"node/5139756812","name":"Tulse Hill Post Office","category":"civic","osmType":"node","osmId":5139756812,"amenity":"post_office","tourism":null,"shop":null,"office":null,"railway":null,"leisure":null,"source":"OpenStreetMap via Overpass API"},"geometry":{"type":"Point","coordinates":[-0.107179,51.441022]}},{"type":"Feature","properties":{"id":"node/5149757021","name":"Mazenod Social Club & Community Centre","category":"civic","osmType":"node","osmId":5149757021,"amenity":"community_centre","tourism":null,"shop":null,"office":null,"railway":null,"leisure":null,"source":"OpenStreetMap via Overpass API"},"geometry":{"type":"Point","coordinates":[-0.193966,51.540882]}},{"type":"Feature","properties":{"id":"node/5169583425","name":"Covent Garden Community Centre","category":"civic","osmType":"node","osmId":5169583425,"amenity":"community_centre","tourism":null,"shop":null,"office":null,"railway":null,"leisure":null,"source":"OpenStreetMap via Overpass API"},"geometry":{"type":"Point","coordinates":[-0.125976,51.513758]}},{"type":"Feature","properties":{"id":"node/5201079621","name":"Shia (Jewish Community London)","category":"civic","osmType":"node","osmId":5201079621,"amenity":"community_centre","tourism":null,"shop":null,"office":null,"railway":null,"leisure":null,"source":"OpenStreetMap via Overpass API"},"geometry":{"type":"Point","coordinates":[-0.072218,51.571116]}},{"type":"Feature","properties":{"id":"node/5235066577","name":"DIY space for London","category":"civic","osmType":"node","osmId":5235066577,"amenity":"community_centre","tourism":null,"shop":null,"office":null,"railway":null,"leisure":null,"source":"OpenStreetMap via Overpass API"},"geometry":{"type":"Point","coordinates":[-0.055492,51.482433]}},{"type":"Feature","properties":{"id":"node/5244074139","name":"Westminster Muslim Cultural Centre","category":"civic","osmType":"node","osmId":5244074139,"amenity":"community_centre","tourism":null,"shop":null,"office":null,"railway":null,"leisure":null,"source":"OpenStreetMap via Overpass API"},"geometry":{"type":"Point","coordinates":[-0.143647,51.488752]}},{"type":"Feature","properties":{"id":"node/5322192375","name":"Devons Community Hall","category":"civic","osmType":"node","osmId":5322192375,"amenity":"community_centre","tourism":null,"shop":null,"office":null,"railway":null,"leisure":null,"source":"OpenStreetMap via Overpass API"},"geometry":{"type":"Point","coordinates":[-0.014207,51.525978]}},{"type":"Feature","properties":{"id":"node/5322192376","name":"Bromley-by-Bow Bangladeshi Forum & Muslim Cultural Centre","category":"civic","osmType":"node","osmId":5322192376,"amenity":"community_centre","tourism":null,"shop":null,"office":null,"railway":null,"leisure":null,"source":"OpenStreetMap via Overpass API"},"geometry":{"type":"Point","coordinates":[-0.014255,51.526045]}},{"type":"Feature","properties":{"id":"node/538541021","name":"The Cafe At 91","category":"civic","osmType":"node","osmId":538541021,"amenity":"community_centre","tourism":null,"shop":null,"office":null,"railway":null,"leisure":null,"source":"OpenStreetMap via Overpass API"},"geometry":{"type":"Point","coordinates":[-0.127205,51.567925]}},{"type":"Feature","properties":{"id":"node/5397730721","name":"Day-Mer","category":"civic","osmType":"node","osmId":5397730721,"amenity":"community_centre","tourism":null,"shop":null,"office":null,"railway":null,"leisure":null,"source":"OpenStreetMap via Overpass API"},"geometry":{"type":"Point","coordinates":[-0.082188,51.552744]}},{"type":"Feature","properties":{"id":"node/5398535324","name":"Imece Women Center","category":"civic","osmType":"node","osmId":5398535324,"amenity":"community_centre","tourism":null,"shop":null,"office":null,"railway":null,"leisure":null,"source":"OpenStreetMap via Overpass API"},"geometry":{"type":"Point","coordinates":[-0.086896,51.546789]}},{"type":"Feature","properties":{"id":"node/5398572321","name":"Day Mer","category":"civic","osmType":"node","osmId":5398572321,"amenity":"community_centre","tourism":null,"shop":null,"office":null,"railway":null,"leisure":null,"source":"OpenStreetMap via Overpass API"},"geometry":{"type":"Point","coordinates":[-0.082189,51.552754]}},{"type":"Feature","properties":{"id":"node/5401087314","name":"Mill Lane Post Office","category":"civic","osmType":"node","osmId":5401087314,"amenity":"post_office","tourism":null,"shop":null,"office":null,"railway":null,"leisure":null,"source":"OpenStreetMap via Overpass API"},"geometry":{"type":"Point","coordinates":[-0.20076,51.551167]}},{"type":"Feature","properties":{"id":"node/5412585923","name":"Kent House Knightsbridge","category":"civic","osmType":"node","osmId":5412585923,"amenity":"community_centre","tourism":null,"shop":null,"office":null,"railway":null,"leisure":null,"source":"OpenStreetMap via Overpass API"},"geometry":{"type":"Point","coordinates":[-0.166728,51.501294]}},{"type":"Feature","properties":{"id":"node/5434037050","name":"Connect & Do","category":"civic","osmType":"node","osmId":5434037050,"amenity":"community_centre","tourism":null,"shop":null,"office":null,"railway":null,"leisure":null,"source":"OpenStreetMap via Overpass API"},"geometry":{"type":"Point","coordinates":[-0.108051,51.457931]}},{"type":"Feature","properties":{"id":"node/5454764432","name":"Highview","category":"civic","osmType":"node","osmId":5454764432,"amenity":"community_centre","tourism":null,"shop":null,"office":null,"railway":null,"leisure":null,"source":"OpenStreetMap via Overpass API"},"geometry":{"type":"Point","coordinates":[-0.127479,51.572194]}},{"type":"Feature","properties":{"id":"node/554959835","name":"Upper Richmond Road 355 Post Office","category":"civic","osmType":"node","osmId":554959835,"amenity":"post_office","tourism":null,"shop":null,"office":null,"railway":null,"leisure":null,"source":"OpenStreetMap via Overpass API"},"geometry":{"type":"Point","coordinates":[-0.237096,51.464393]}},{"type":"Feature","properties":{"id":"node/558296902","name":"Stamford Hill Post Office","category":"civic","osmType":"node","osmId":558296902,"amenity":"post_office","tourism":null,"shop":null,"office":null,"railway":null,"leisure":null,"source":"OpenStreetMap via Overpass API"},"geometry":{"type":"Point","coordinates":[-0.072077,51.574267]}},{"type":"Feature","properties":{"id":"node/5613872063","name":"FAST","category":"civic","osmType":"node","osmId":5613872063,"amenity":"community_centre","tourism":null,"shop":null,"office":null,"railway":null,"leisure":null,"source":"OpenStreetMap via Overpass API"},"geometry":{"type":"Point","coordinates":[-0.138189,51.476398]}},{"type":"Feature","properties":{"id":"node/5659486903","name":"Mail Boxes Etc. Highgate","category":"civic","osmType":"node","osmId":5659486903,"amenity":"post_office","tourism":null,"shop":null,"office":null,"railway":null,"leisure":null,"source":"OpenStreetMap via Overpass API"},"geometry":{"type":"Point","coordinates":[-0.146762,51.570453]}},{"type":"Feature","properties":{"id":"node/571462872","name":"British Transport Police","category":"civic","osmType":"node","osmId":571462872,"amenity":"police","tourism":null,"shop":null,"office":null,"railway":null,"leisure":null,"source":"OpenStreetMap via Overpass API"},"geometry":{"type":"Point","coordinates":[-0.134566,51.527711]}},{"type":"Feature","properties":{"id":"node/5765820045","name":"Robert Street Post Office","category":"civic","osmType":"node","osmId":5765820045,"amenity":"post_office","tourism":null,"shop":null,"office":null,"railway":null,"leisure":null,"source":"OpenStreetMap via Overpass API"},"geometry":{"type":"Point","coordinates":[-0.143494,51.528343]}},{"type":"Feature","properties":{"id":"node/5788392552","name":"The Arc Centre","category":"civic","osmType":"node","osmId":5788392552,"amenity":"community_centre","tourism":null,"shop":null,"office":null,"railway":null,"leisure":null,"source":"OpenStreetMap via Overpass API"},"geometry":{"type":"Point","coordinates":[-0.096046,51.535931]}},{"type":"Feature","properties":{"id":"node/587754352","name":"Waterloo Action Centre","category":"civic","osmType":"node","osmId":587754352,"amenity":"community_centre","tourism":null,"shop":null,"office":null,"railway":null,"leisure":null,"source":"OpenStreetMap via Overpass API"},"geometry":{"type":"Point","coordinates":[-0.110565,51.502037]}},{"type":"Feature","properties":{"id":"node/6086441186","name":"The Dhamma Shed (for Vipassana mediators)","category":"civic","osmType":"node","osmId":6086441186,"amenity":"community_centre","tourism":null,"shop":null,"office":null,"railway":null,"leisure":null,"source":"OpenStreetMap via Overpass API"},"geometry":{"type":"Point","coordinates":[-0.065602,51.544685]}},{"type":"Feature","properties":{"id":"node/6110620100","name":"Iraqi Association","category":"civic","osmType":"node","osmId":6110620100,"amenity":"community_centre","tourism":null,"shop":null,"office":null,"railway":null,"leisure":null,"source":"OpenStreetMap via Overpass API"},"geometry":{"type":"Point","coordinates":[-0.226973,51.516187]}},{"type":"Feature","properties":{"id":"node/6133023950","name":"Melcombe Street Post Office","category":"civic","osmType":"node","osmId":6133023950,"amenity":"post_office","tourism":null,"shop":null,"office":null,"railway":null,"leisure":null,"source":"OpenStreetMap via Overpass API"},"geometry":{"type":"Point","coordinates":[-0.159331,51.522712]}},{"type":"Feature","properties":{"id":"node/6232917584","name":"Queens Crescent Post Office","category":"civic","osmType":"node","osmId":6232917584,"amenity":"post_office","tourism":null,"shop":null,"office":null,"railway":null,"leisure":null,"source":"OpenStreetMap via Overpass API"},"geometry":{"type":"Point","coordinates":[-0.152724,51.549484]}},{"type":"Feature","properties":{"id":"node/6291220850","name":"Chapel Market Post Office","category":"civic","osmType":"node","osmId":6291220850,"amenity":"post_office","tourism":null,"shop":null,"office":null,"railway":null,"leisure":null,"source":"OpenStreetMap via Overpass API"},"geometry":{"type":"Point","coordinates":[-0.108503,51.533629]}},{"type":"Feature","properties":{"id":"node/647071204","name":"Uxbridge Road Post Office","category":"civic","osmType":"node","osmId":647071204,"amenity":"post_office","tourism":null,"shop":null,"office":null,"railway":null,"leisure":null,"source":"OpenStreetMap via Overpass API"},"geometry":{"type":"Point","coordinates":[-0.237921,51.506551]}},{"type":"Feature","properties":{"id":"node/6476410685","name":"Japan House","category":"civic","osmType":"node","osmId":6476410685,"amenity":"community_centre","tourism":null,"shop":null,"office":null,"railway":null,"leisure":null,"source":"OpenStreetMap via Overpass API"},"geometry":{"type":"Point","coordinates":[-0.191682,51.50135]}},{"type":"Feature","properties":{"id":"node/6483531062","name":"Tooting Post Office","category":"civic","osmType":"node","osmId":6483531062,"amenity":"post_office","tourism":null,"shop":null,"office":null,"railway":null,"leisure":null,"source":"OpenStreetMap via Overpass API"},"geometry":{"type":"Point","coordinates":[-0.167036,51.430058]}},{"type":"Feature","properties":{"id":"node/6493661730","name":"civic","category":"civic","osmType":"node","osmId":6493661730,"amenity":"police","tourism":null,"shop":null,"office":null,"railway":null,"leisure":null,"source":"OpenStreetMap via Overpass API"},"geometry":{"type":"Point","coordinates":[-0.171203,51.522927]}},{"type":"Feature","properties":{"id":"node/6530449087","name":"Pack Send","category":"civic","osmType":"node","osmId":6530449087,"amenity":"post_office","tourism":null,"shop":null,"office":null,"railway":null,"leisure":null,"source":"OpenStreetMap via Overpass API"},"geometry":{"type":"Point","coordinates":[-0.06713,51.515466]}},{"type":"Feature","properties":{"id":"node/653879135","name":"Bow Post Office","category":"civic","osmType":"node","osmId":653879135,"amenity":"post_office","tourism":null,"shop":null,"office":null,"railway":null,"leisure":null,"source":"OpenStreetMap via Overpass API"},"geometry":{"type":"Point","coordinates":[-0.019036,51.528467]}},{"type":"Feature","properties":{"id":"node/6579578694","name":"Bethnal Green Road Post Office","category":"civic","osmType":"node","osmId":6579578694,"amenity":"post_office","tourism":null,"shop":null,"office":null,"railway":null,"leisure":null,"source":"OpenStreetMap via Overpass API"},"geometry":{"type":"Point","coordinates":[-0.061085,51.527004]}},{"type":"Feature","properties":{"id":"node/6594761661","name":"Mail Boxes Etc","category":"civic","osmType":"node","osmId":6594761661,"amenity":"post_office","tourism":null,"shop":null,"office":null,"railway":null,"leisure":null,"source":"OpenStreetMap via Overpass API"},"geometry":{"type":"Point","coordinates":[-0.12025,51.531026]}},{"type":"Feature","properties":{"id":"node/6612096696","name":"Royal Mail","category":"civic","osmType":"node","osmId":6612096696,"amenity":"post_office","tourism":null,"shop":null,"office":null,"railway":null,"leisure":null,"source":"OpenStreetMap via Overpass API"},"geometry":{"type":"Point","coordinates":[-0.182141,51.535177]}},{"type":"Feature","properties":{"id":"node/6632283460","name":"HBC Community Centre","category":"civic","osmType":"node","osmId":6632283460,"amenity":"community_centre","tourism":null,"shop":null,"office":null,"railway":null,"leisure":null,"source":"OpenStreetMap via Overpass API"},"geometry":{"type":"Point","coordinates":[-0.042038,51.546039]}},{"type":"Feature","properties":{"id":"node/6635268946","name":"Grays Inn Post Office","category":"civic","osmType":"node","osmId":6635268946,"amenity":"post_office","tourism":null,"shop":null,"office":null,"railway":null,"leisure":null,"source":"OpenStreetMap via Overpass API"},"geometry":{"type":"Point","coordinates":[-0.11143,51.519038]}},{"type":"Feature","properties":{"id":"node/668003061","name":"Pier Parade Post Office","category":"civic","osmType":"node","osmId":668003061,"amenity":"post_office","tourism":null,"shop":null,"office":null,"railway":null,"leisure":null,"source":"OpenStreetMap via Overpass API"},"geometry":{"type":"Point","coordinates":[0.063145,51.500631]}},{"type":"Feature","properties":{"id":"node/6725592240","name":"Portland Express","category":"civic","osmType":"node","osmId":6725592240,"amenity":"post_office","tourism":null,"shop":null,"office":null,"railway":null,"leisure":null,"source":"OpenStreetMap via Overpass API"},"geometry":{"type":"Point","coordinates":[-0.179358,51.525423]}},{"type":"Feature","properties":{"id":"node/6797437106","name":"Kentish Town Post Office","category":"civic","osmType":"node","osmId":6797437106,"amenity":"post_office","tourism":null,"shop":null,"office":null,"railway":null,"leisure":null,"source":"OpenStreetMap via Overpass API"},"geometry":{"type":"Point","coordinates":[-0.141531,51.548389]}},{"type":"Feature","properties":{"id":"node/6815375953","name":"Brick Lane Post Office","category":"civic","osmType":"node","osmId":6815375953,"amenity":"post_office","tourism":null,"shop":null,"office":null,"railway":null,"leisure":null,"source":"OpenStreetMap via Overpass API"},"geometry":{"type":"Point","coordinates":[-0.071519,51.52224]}},{"type":"Feature","properties":{"id":"node/6855377521","name":"Besborough Family Hub","category":"civic","osmType":"node","osmId":6855377521,"amenity":"community_centre","tourism":null,"shop":null,"office":null,"railway":null,"leisure":null,"source":"OpenStreetMap via Overpass API"},"geometry":{"type":"Point","coordinates":[-0.133715,51.488851]}},{"type":"Feature","properties":{"id":"node/706611753","name":"West Putney Ward Metropolitain Police","category":"civic","osmType":"node","osmId":706611753,"amenity":"police","tourism":null,"shop":null,"office":null,"railway":null,"leisure":null,"source":"OpenStreetMap via Overpass API"},"geometry":{"type":"Point","coordinates":[-0.229583,51.45529]}},{"type":"Feature","properties":{"id":"node/7123777864","name":"Mail Boxes Etc.","category":"civic","osmType":"node","osmId":7123777864,"amenity":"post_office","tourism":null,"shop":null,"office":null,"railway":null,"leisure":null,"source":"OpenStreetMap via Overpass API"},"geometry":{"type":"Point","coordinates":[-0.193799,51.509681]}},{"type":"Feature","properties":{"id":"node/7134845177","name":"Dockland Settlements Community Centre","category":"civic","osmType":"node","osmId":7134845177,"amenity":"community_centre","tourism":null,"shop":null,"office":null,"railway":null,"leisure":null,"source":"OpenStreetMap via Overpass API"},"geometry":{"type":"Point","coordinates":[-0.009737,51.486794]}},{"type":"Feature","properties":{"id":"node/7208958621","name":"Chinese Association of Tower Hamlets","category":"civic","osmType":"node","osmId":7208958621,"amenity":"community_centre","tourism":null,"shop":null,"office":null,"railway":null,"leisure":null,"source":"OpenStreetMap via Overpass API"},"geometry":{"type":"Point","coordinates":[-0.028634,51.511614]}},{"type":"Feature","properties":{"id":"node/7236214809","name":"Portobello Road Post Office","category":"civic","osmType":"node","osmId":7236214809,"amenity":"post_office","tourism":null,"shop":null,"office":null,"railway":null,"leisure":null,"source":"OpenStreetMap via Overpass API"},"geometry":{"type":"Point","coordinates":[-0.209638,51.520923]}},{"type":"Feature","properties":{"id":"node/7273801493","name":"Southampton Row Post Office","category":"civic","osmType":"node","osmId":7273801493,"amenity":"post_office","tourism":null,"shop":null,"office":null,"railway":null,"leisure":null,"source":"OpenStreetMap via Overpass API"},"geometry":{"type":"Point","coordinates":[-0.121949,51.519874]}},{"type":"Feature","properties":{"id":"node/7273801494","name":"Strand Post Office","category":"civic","osmType":"node","osmId":7273801494,"amenity":"post_office","tourism":null,"shop":null,"office":null,"railway":null,"leisure":null,"source":"OpenStreetMap via Overpass API"},"geometry":{"type":"Point","coordinates":[-0.121829,51.510436]}},{"type":"Feature","properties":{"id":"node/7292272016","name":"Russell Gardens Post Office","category":"civic","osmType":"node","osmId":7292272016,"amenity":"post_office","tourism":null,"shop":null,"office":null,"railway":null,"leisure":null,"source":"OpenStreetMap via Overpass API"},"geometry":{"type":"Point","coordinates":[-0.210846,51.500148]}},{"type":"Feature","properties":{"id":"node/7353477012","name":"Clarendon Road Post Office","category":"civic","osmType":"node","osmId":7353477012,"amenity":"post_office","tourism":null,"shop":null,"office":null,"railway":null,"leisure":null,"source":"OpenStreetMap via Overpass API"},"geometry":{"type":"Point","coordinates":[-0.211016,51.512268]}},{"type":"Feature","properties":{"id":"node/7391450923","name":"AUGB London","category":"civic","osmType":"node","osmId":7391450923,"amenity":"community_centre","tourism":null,"shop":null,"office":null,"railway":null,"leisure":null,"source":"OpenStreetMap via Overpass API"},"geometry":{"type":"Point","coordinates":[-0.210981,51.506011]}},{"type":"Feature","properties":{"id":"node/7401798510","name":"Streatham Post Office","category":"civic","osmType":"node","osmId":7401798510,"amenity":"post_office","tourism":null,"shop":null,"office":null,"railway":null,"leisure":null,"source":"OpenStreetMap via Overpass API"},"geometry":{"type":"Point","coordinates":[-0.129374,51.432339]}},{"type":"Feature","properties":{"id":"node/753468065","name":"Highgate Road Post Office","category":"civic","osmType":"node","osmId":753468065,"amenity":"post_office","tourism":null,"shop":null,"office":null,"railway":null,"leisure":null,"source":"OpenStreetMap via Overpass API"},"geometry":{"type":"Point","coordinates":[-0.145285,51.554964]}},{"type":"Feature","properties":{"id":"node/7591017507","name":"Gloucester Road Post Office","category":"civic","osmType":"node","osmId":7591017507,"amenity":"post_office","tourism":null,"shop":null,"office":null,"railway":null,"leisure":null,"source":"OpenStreetMap via Overpass API"},"geometry":{"type":"Point","coordinates":[-0.18315,51.495168]}},{"type":"Feature","properties":{"id":"node/7597337436","name":"Mail Boxes Etc.","category":"civic","osmType":"node","osmId":7597337436,"amenity":"post_office","tourism":null,"shop":null,"office":null,"railway":null,"leisure":null,"source":"OpenStreetMap via Overpass API"},"geometry":{"type":"Point","coordinates":[-0.183949,51.497916]}},{"type":"Feature","properties":{"id":"node/759843382","name":"Oak Tree Community Centre","category":"civic","osmType":"node","osmId":759843382,"amenity":"community_centre","tourism":null,"shop":null,"office":null,"railway":null,"leisure":null,"source":"OpenStreetMap via Overpass API"},"geometry":{"type":"Point","coordinates":[-0.081983,51.571551]}},{"type":"Feature","properties":{"id":"node/759899458","name":"Park Police","category":"civic","osmType":"node","osmId":759899458,"amenity":"police","tourism":null,"shop":null,"office":null,"railway":null,"leisure":null,"source":"OpenStreetMap via Overpass API"},"geometry":{"type":"Point","coordinates":[-0.163449,51.48077]}},{"type":"Feature","properties":{"id":"node/7612835933","name":"civic","category":"civic","osmType":"node","osmId":7612835933,"amenity":"community_centre","tourism":null,"shop":null,"office":null,"railway":null,"leisure":null,"source":"OpenStreetMap via Overpass API"},"geometry":{"type":"Point","coordinates":[-0.204325,51.490159]}},{"type":"Feature","properties":{"id":"node/7619804112","name":"Russia Culture House/Rossotrudnichestvo","category":"civic","osmType":"node","osmId":7619804112,"amenity":"community_centre","tourism":null,"shop":null,"office":null,"railway":null,"leisure":null,"source":"OpenStreetMap via Overpass API"},"geometry":{"type":"Point","coordinates":[-0.18903,51.50215]}},{"type":"Feature","properties":{"id":"node/7643507674","name":"civic","category":"civic","osmType":"node","osmId":7643507674,"amenity":"community_centre","tourism":null,"shop":null,"office":null,"railway":null,"leisure":null,"source":"OpenStreetMap via Overpass API"},"geometry":{"type":"Point","coordinates":[-0.149464,51.475365]}},{"type":"Feature","properties":{"id":"node/764515222","name":"Isle Of Dogs Post Office","category":"civic","osmType":"node","osmId":764515222,"amenity":"post_office","tourism":null,"shop":null,"office":null,"railway":null,"leisure":null,"source":"OpenStreetMap via Overpass API"},"geometry":{"type":"Point","coordinates":[-0.006934,51.489278]}},{"type":"Feature","properties":{"id":"node/765256582","name":"Marylebone Post Office","category":"civic","osmType":"node","osmId":765256582,"amenity":"post_office","tourism":null,"shop":null,"office":null,"railway":null,"leisure":null,"source":"OpenStreetMap via Overpass API"},"geometry":{"type":"Point","coordinates":[-0.151262,51.517468]}},{"type":"Feature","properties":{"id":"node/7680210996","name":"Charterhouse Road Club","category":"civic","osmType":"node","osmId":7680210996,"amenity":"community_centre","tourism":null,"shop":null,"office":null,"railway":null,"leisure":null,"source":"OpenStreetMap via Overpass API"},"geometry":{"type":"Point","coordinates":[-0.068031,51.55298]}},{"type":"Feature","properties":{"id":"node/773224502","name":"Ladbroke Grove Post Office","category":"civic","osmType":"node","osmId":773224502,"amenity":"post_office","tourism":null,"shop":null,"office":null,"railway":null,"leisure":null,"source":"OpenStreetMap via Overpass API"},"geometry":{"type":"Point","coordinates":[-0.209629,51.517138]}},{"type":"Feature","properties":{"id":"node/773226764","name":"Starch Green Post Office","category":"civic","osmType":"node","osmId":773226764,"amenity":"post_office","tourism":null,"shop":null,"office":null,"railway":null,"leisure":null,"source":"OpenStreetMap via Overpass API"},"geometry":{"type":"Point","coordinates":[-0.239302,51.500202]}},{"type":"Feature","properties":{"id":"node/7782773155","name":"Central Street Post Office","category":"civic","osmType":"node","osmId":7782773155,"amenity":"post_office","tourism":null,"shop":null,"office":null,"railway":null,"leisure":null,"source":"OpenStreetMap via Overpass API"},"geometry":{"type":"Point","coordinates":[-0.0973,51.5272]}},{"type":"Feature","properties":{"id":"node/7784100293","name":"Royal Wharf Community Dock","category":"civic","osmType":"node","osmId":7784100293,"amenity":"community_centre","tourism":null,"shop":null,"office":null,"railway":null,"leisure":null,"source":"OpenStreetMap via Overpass API"},"geometry":{"type":"Point","coordinates":[0.027912,51.500743]}},{"type":"Feature","properties":{"id":"node/778614431","name":"Antill Road Centre","category":"civic","osmType":"node","osmId":778614431,"amenity":"community_centre","tourism":null,"shop":null,"office":null,"railway":null,"leisure":null,"source":"OpenStreetMap via Overpass API"},"geometry":{"type":"Point","coordinates":[-0.033117,51.529733]}},{"type":"Feature","properties":{"id":"node/7844463598","name":"Mail Boxes Etc.","category":"civic","osmType":"node","osmId":7844463598,"amenity":"post_office","tourism":null,"shop":null,"office":null,"railway":null,"leisure":null,"source":"OpenStreetMap via Overpass API"},"geometry":{"type":"Point","coordinates":[-0.17771,51.482841]}},